{
    "status":0,
    "message":"ok",
    "total":400,
    "results":[
        {
            "name":"中国农业银行(西岑支行)",
            "location":{
                "lat":31.073171,
                "lng":120.972014
            },
            "address":"上海市青浦区金泽镇西岑社区西岑街365号",
            "province":"上海市",
            "city":"上海市",
            "area":"青浦区",
            "telephone":"(021)59295187",
            "detail":1,
            "uid":"f3fcbdd35e06882c593ac8c2"
        },
        {
            "name":"中国农业银行(朱泾支行)",
            "location":{
                "lat":30.900133,
                "lng":121.168632
            },
            "address":"上海市金山区西林街50号",
            "province":"上海市",
            "city":"上海市",
            "area":"金山区",
            "telephone":"95599",
            "detail":1,
            "uid":"8cba4bb0a9b46886ad045771"
        },
        {
            "name":"中国农业银行(钱圩支行)",
            "location":{
                "lat":30.781603,
                "lng":121.254962
            },
            "address":"上海市金山区钱圩镇建圩路96号",
            "province":"上海市",
            "city":"上海市",
            "area":"金山区",
            "street_id":"6113ef775bbbbb158e77272c",
            "telephone":"(021)57291338",
            "detail":1,
            "uid":"3e0f57e9f8672dec9e95de28"
        },
        {
            "name":"中国农业银行(嘉西支行)",
            "location":{
                "lat":31.378327,
                "lng":121.245078
            },
            "address":"上海市嘉定区塔城路826号",
            "province":"上海市",
            "city":"上海市",
            "area":"嘉定区",
            "street_id":"6ee0102087045cee53e5c595",
            "telephone":"(021)59534586",
            "detail":1,
            "uid":"6ee0102087045cee53e5c595"
        },
        {
            "name":"中国农业银行(吴泾支行)",
            "location":{
                "lat":31.048153,
                "lng":121.475492
            },
            "address":"上海市闵行区剑川路141号",
            "province":"上海市",
            "city":"上海市",
            "area":"闵行区",
            "street_id":"f60a15edf242bdedbb17e714",
            "telephone":"(021)64504743,(021)64504767",
            "detail":1,
            "uid":"f60a15edf242bdedbb17e714"
        },
        {
            "name":"中国农业银行(高桥支行)",
            "location":{
                "lat":31.019679,
                "lng":121.322044
            },
            "address":"影视路二十八弄2",
            "province":"上海市",
            "city":"上海市",
            "area":"松江区",
            "street_id":"f757e6eed2772d16260bd03e",
            "telephone":"(021)67654547",
            "detail":1,
            "uid":"f757e6eed2772d16260bd03e"
        },
        {
            "name":"中国农业银行(黄渡支行)",
            "location":{
                "lat":31.275771,
                "lng":121.22078
            },
            "address":"上海市嘉定区黄渡镇绿苑路186号",
            "province":"上海市",
            "city":"上海市",
            "area":"嘉定区",
            "street_id":"c879fa0146c9604bc909f0e6",
            "detail":1,
            "uid":"c879fa0146c9604bc909f0e6"
        },
        {
            "name":"中国农业银行(佘山支行)",
            "location":{
                "lat":31.106088,
                "lng":121.191305
            },
            "address":"桃源路188弄222号",
            "province":"上海市",
            "city":"上海市",
            "area":"松江区",
            "street_id":"0ce0335d482fcd832d473352",
            "telephone":"(021)37002117,(021)37002116",
            "detail":1,
            "uid":"0ce0335d482fcd832d473352"
        },
        {
            "name":"中国农业银行(昆港支行)",
            "location":{
                "lat":31.037144,
                "lng":121.146321
            },
            "address":"文翔路5198号",
            "province":"上海市",
            "city":"上海市",
            "area":"松江区",
            "telephone":"(021)57764792,(021)57761081",
            "detail":1,
            "uid":"18f235f3c456d5adbadf8f68"
        },
        {
            "name":"中国农业银行(洪庙支行)",
            "location":{
                "lat":30.930659,
                "lng":121.68865
            },
            "address":"上海市奉贤区洪庙路3号",
            "province":"上海市",
            "city":"上海市",
            "area":"奉贤区",
            "street_id":"befdb292ca3bc5e087154112",
            "telephone":"(021)57131840",
            "detail":1,
            "uid":"befdb292ca3bc5e087154112"
        },
        {
            "name":"中国农业银行(光明支行)",
            "location":{
                "lat":30.91121,
                "lng":121.517056
            },
            "address":"上海市奉贤区南桥镇光明路468号",
            "province":"上海市",
            "city":"上海市",
            "area":"奉贤区",
            "street_id":"c16534058a35b078ab175a02",
            "telephone":"(021)57471153",
            "detail":1,
            "uid":"c16534058a35b078ab175a02"
        },
        {
            "name":"中国农业银行(柘林支行)",
            "location":{
                "lat":30.835217,
                "lng":121.477495
            },
            "address":"上海市奉贤区苍工路122号",
            "province":"上海市",
            "city":"上海市",
            "area":"奉贤区",
            "street_id":"3efb810f9ff1f401cae33c9f",
            "telephone":"(021)57446137",
            "detail":1,
            "uid":"3efb810f9ff1f401cae33c9f"
        },
        {
            "name":"中国农业银行(漕泾支行)",
            "location":{
                "lat":30.801287,
                "lng":121.419509
            },
            "address":"上海市金山区漕泾镇致富路118号",
            "province":"上海市",
            "city":"上海市",
            "area":"金山区",
            "street_id":"86a858429b7a3c1281288a04",
            "telephone":"95599",
            "detail":1,
            "uid":"86a858429b7a3c1281288a04"
        },
        {
            "name":"中国农业银行(松隐支行)",
            "location":{
                "lat":30.898874,
                "lng":121.245156
            },
            "address":"上海市金山区亭林镇松隐中心路228号",
            "province":"上海市",
            "city":"上海市",
            "area":"金山区",
            "street_id":"75d0881ac75e004c3a04b12b",
            "telephone":"(021)57381344",
            "detail":1,
            "uid":"75d0881ac75e004c3a04b12b"
        },
        {
            "name":"中国农业银行(朱行支行)",
            "location":{
                "lat":30.855343,
                "lng":121.351083
            },
            "address":"上海市金山区亭林镇开乐大街2号",
            "province":"上海市",
            "city":"上海市",
            "area":"金山区",
            "street_id":"ef773a0f77f4e74922022043",
            "telephone":"(021)57270277,(021)57270268",
            "detail":1,
            "uid":"ef773a0f77f4e74922022043"
        },
        {
            "name":"中国农业银行(长江分理处)",
            "location":{
                "lat":31.683996,
                "lng":121.544856
            },
            "address":"上海市崇明区东冉路889弄10号",
            "province":"上海市",
            "city":"上海市",
            "area":"崇明区",
            "telephone":"95599",
            "detail":1,
            "uid":"e4b5503376ed161ed2f49e8e"
        },
        {
            "name":"中国农业银行(崇明建设支行)",
            "location":{
                "lat":31.663532,
                "lng":121.460538
            },
            "address":"上海市崇明区建设镇镇中路268号",
            "province":"上海市",
            "city":"上海市",
            "area":"崇明区",
            "telephone":"(021)59331125",
            "detail":1,
            "uid":"637df60ab5a3517340afe656"
        },
        {
            "name":"中国农业银行(崇明庙镇支行)",
            "location":{
                "lat":31.719081,
                "lng":121.356824
            },
            "address":"上海市崇明区宏海公路1880号",
            "province":"上海市",
            "city":"上海市",
            "area":"崇明区",
            "street_id":"ffd6d403a779a98c17b54bd7",
            "telephone":"(021)59361129",
            "detail":1,
            "uid":"ffd6d403a779a98c17b54bd7"
        },
        {
            "name":"中国农业银行(崇明裕安支行)",
            "location":{
                "lat":31.532727,
                "lng":121.839917
            },
            "address":"上海市崇明区北陈公路1462号",
            "province":"上海市",
            "city":"上海市",
            "area":"崇明区",
            "street_id":"2527be1e9d49fbb24afc8d3e",
            "telephone":"(021)59404551",
            "detail":1,
            "uid":"2527be1e9d49fbb24afc8d3e"
        },
        {
            "name":"中国农业银行(崇明向化支行)",
            "location":{
                "lat":31.526929,
                "lng":121.72803
            },
            "address":"上海市崇明区向化镇向化大街171号",
            "province":"上海市",
            "city":"上海市",
            "area":"崇明区",
            "street_id":"4cf8d24e7da602e59cf77957",
            "telephone":"(021)59441138",
            "detail":1,
            "uid":"4cf8d24e7da602e59cf77957"
        }
    ]
}