{
    "status":0,
    "message":"ok",
    "total":400,
    "results":[
        {
            "name":"中国建设银行(上海华池路支行)",
            "location":{
                "lat":31.260917,
                "lng":121.431294
            },
            "address":"华池路238号",
            "province":"上海市",
            "city":"上海市",
            "area":"普陀区",
            "street_id":"6ee0102085e25eee52e5c5f7",
            "telephone":"(021)62140022",
            "detail":1,
            "uid":"6ee0102085e25eee52e5c5f7"
        },
        {
            "name":"中国建设银行(上海光新路支行)",
            "location":{
                "lat":31.257283,
                "lng":121.439308
            },
            "address":"中山北路1833号",
            "province":"上海市",
            "city":"上海市",
            "area":"普陀区",
            "street_id":"be54cde945891f2678f7964d",
            "telephone":"(021)32551521",
            "detail":1,
            "uid":"be54cde945891f2678f7964d"
        },
        {
            "name":"中国建设银行(上海兰溪路支行)",
            "location":{
                "lat":31.245296,
                "lng":121.411759
            },
            "address":"兰溪路137号",
            "province":"上海市",
            "city":"上海市",
            "area":"普陀区",
            "street_id":"c8e8f633f88eb06dab0dd8fc",
            "telephone":"(021)52661923",
            "detail":1,
            "uid":"c8e8f633f88eb06dab0dd8fc"
        },
        {
            "name":"中国建设银行(上海延平路支行)",
            "location":{
                "lat":31.234724,
                "lng":121.44781
            },
            "address":"延平路121号",
            "province":"上海市",
            "city":"上海市",
            "area":"静安区",
            "street_id":"56f2f69661e035810ba8d482",
            "telephone":"(021)62462257",
            "detail":1,
            "uid":"56f2f69661e035810ba8d482"
        },
        {
            "name":"中国建设银行(上海武康路支行)",
            "location":{
                "lat":31.210895,
                "lng":121.444447
            },
            "address":"上海市徐汇区武康路406-410号",
            "province":"上海市",
            "city":"上海市",
            "area":"徐汇区",
            "street_id":"7a0ad8b2284a0f40ca1b9573",
            "telephone":"(021)54270091",
            "detail":1,
            "uid":"7a0ad8b2284a0f40ca1b9573"
        },
        {
            "name":"中国建设银行(上海肇嘉浜路支行)",
            "location":{
                "lat":31.204901,
                "lng":121.455656
            },
            "address":"上海市徐汇区肇嘉浜路769号",
            "province":"上海市",
            "city":"上海市",
            "area":"徐汇区",
            "street_id":"c8b5cdef353ef47f130daafc",
            "telephone":"(021)64439010,(021)64434058",
            "detail":1,
            "uid":"c8b5cdef353ef47f130daafc"
        },
        {
            "name":"中国建设银行(上海新闸路支行)",
            "location":{
                "lat":31.235536,
                "lng":121.452158
            },
            "address":"新闸路1660号",
            "province":"上海市",
            "city":"上海市",
            "area":"静安区",
            "street_id":"dc0f0adc02cda15df92213ad",
            "telephone":"(021)62530144",
            "detail":1,
            "uid":"dc0f0adc02cda15df92213ad"
        },
        {
            "name":"中国建设银行(上海黄金城道支行)",
            "location":{
                "lat":31.201383,
                "lng":121.405137
            },
            "address":"古北路1115号",
            "province":"上海市",
            "city":"上海市",
            "area":"长宁区",
            "street_id":"f4c6d3c525820f2e581093c5",
            "telephone":"(021)32220621",
            "detail":1,
            "uid":"f4c6d3c525820f2e581093c5"
        },
        {
            "name":"中国建设银行(上海南丹路支行)",
            "location":{
                "lat":31.19601,
                "lng":121.437294
            },
            "address":"上海市南丹路158号",
            "province":"上海市",
            "city":"上海市",
            "area":"徐汇区",
            "street_id":"ffd6d403d7d1d9f317b54b7e",
            "telephone":"(021)54256245",
            "detail":1,
            "uid":"ffd6d403d7d1d9f317b54b7e"
        },
        {
            "name":"中国建设银行(上海钦州北路支行)",
            "location":{
                "lat":31.186489,
                "lng":121.423548
            },
            "address":"上海市徐汇区钦州北路457号",
            "province":"上海市",
            "city":"上海市",
            "area":"徐汇区",
            "street_id":"f9bb3808ecb7fa520482c222",
            "telephone":"(021)34612750",
            "detail":1,
            "uid":"f9bb3808ecb7fa520482c222"
        },
        {
            "name":"中国建设银行(上海天钥桥路支行)",
            "location":{
                "lat":31.19658,
                "lng":121.448319
            },
            "address":"上海市徐汇区天钥桥路258号",
            "province":"上海市",
            "city":"上海市",
            "area":"徐汇区",
            "street_id":"d1469ee78fa68e63843304c6",
            "telephone":"(021)64697949",
            "detail":1,
            "uid":"d1469ee78fa68e63843304c6"
        },
        {
            "name":"中国建设银行(上海罗秀路支行)",
            "location":{
                "lat":31.137026,
                "lng":121.436544
            },
            "address":"上海市罗秀路987-991号",
            "province":"上海市",
            "city":"上海市",
            "area":"徐汇区",
            "street_id":"a5097bfafd329262f03cbad6",
            "telephone":"(021)54397412",
            "detail":1,
            "uid":"a5097bfafd329262f03cbad6"
        },
        {
            "name":"中国建设银行(上海新德路支行)",
            "location":{
                "lat":31.201747,
                "lng":121.693692
            },
            "address":"上海浦东新区川沙镇新德路835弄1号",
            "province":"上海市",
            "city":"上海市",
            "area":"浦东新区",
            "street_id":"504d61138e123bb24657267f",
            "telephone":"(021)58377067",
            "detail":1,
            "uid":"504d61138e123bb24657267f"
        },
        {
            "name":"中国建设银行(上海邯郸路支行)",
            "location":{
                "lat":31.293289,
                "lng":121.497627
            },
            "address":"上海市虹口区曲阳路810号",
            "province":"上海市",
            "city":"上海市",
            "area":"虹口区",
            "street_id":"6113ef775ab2ba158e772727",
            "telephone":"(021)65522710,(021)65535874",
            "detail":1,
            "uid":"6113ef775ab2ba158e772727"
        },
        {
            "name":"中国建设银行(上海临汾路支行)",
            "location":{
                "lat":31.320539,
                "lng":121.454437
            },
            "address":"上海市共和新路4534-4536号",
            "province":"上海市",
            "city":"上海市",
            "area":"静安区",
            "street_id":"b703e96b82d377fb8f1a89ed",
            "telephone":"(021)66248863",
            "detail":1,
            "uid":"b703e96b82d377fb8f1a89ed"
        },
        {
            "name":"中国建设银行(上海阳城路支行)",
            "location":{
                "lat":31.291138,
                "lng":121.436962
            },
            "address":"上海市阳城路90号",
            "province":"上海市",
            "city":"上海市",
            "area":"静安区",
            "street_id":"56e88cba5a444864a4c756ec",
            "telephone":"(021)66504763",
            "detail":1,
            "uid":"56e88cba5a444864a4c756ec"
        },
        {
            "name":"中国建设银行(上海荷泽路支行)",
            "location":{
                "lat":31.27157,
                "lng":121.600814
            },
            "address":"上海市浦东新区荷泽路510号",
            "province":"上海市",
            "city":"上海市",
            "area":"浦东新区",
            "street_id":"764672e5bca522ac94ec8472",
            "telephone":"(021)68511872",
            "detail":1,
            "uid":"764672e5bca522ac94ec8472"
        },
        {
            "name":"中国建设银行(上海芳华路支行)",
            "location":{
                "lat":31.202269,
                "lng":121.564164
            },
            "address":"上海浦东新区芳华路381号",
            "province":"上海市",
            "city":"上海市",
            "area":"浦东新区",
            "street_id":"7bfa08fc67890c7e25d2bb4e",
            "telephone":"(021)68923138",
            "detail":1,
            "uid":"7bfa08fc67890c7e25d2bb4e"
        },
        {
            "name":"中国建设银行(上海周家嘴路支行)",
            "location":{
                "lat":31.266648,
                "lng":121.511269
            },
            "address":"上海市虹口区周家嘴路933号",
            "province":"上海市",
            "city":"上海市",
            "area":"虹口区",
            "street_id":"3f826ed3d1f85447d1f49e22",
            "detail":1,
            "uid":"3f826ed3d1f85447d1f49e22"
        },
        {
            "name":"中国建设银行(上海平凉路支行)",
            "location":{
                "lat":31.269702,
                "lng":121.54345
            },
            "address":"平凉路1373号",
            "province":"上海市",
            "city":"上海市",
            "area":"杨浦区",
            "street_id":"34e48508da31e8e3d8d891d0",
            "telephone":"(021)55805166",
            "detail":1,
            "uid":"34e48508da31e8e3d8d891d0"
        }
    ]
}