{
    "status":0,
    "message":"ok",
    "total":400,
    "results":[
        {
            "name":"中国农业银行(上海威海路支行)",
            "location":{
                "lat":31.233361,
                "lng":121.471299
            },
            "address":"上海市静安区威海路349号",
            "province":"上海市",
            "city":"上海市",
            "area":"静安区",
            "street_id":"2ad32cc350caf48e9c95de82",
            "telephone":"(021)63401591",
            "detail":1,
            "uid":"2ad32cc350caf48e9c95de82"
        },
        {
            "name":"中国农业银行(上海御桥分理处)",
            "location":{
                "lat":31.164309,
                "lng":121.578405
            },
            "address":"上海市浦东新区御桥路1950号",
            "province":"上海市",
            "city":"上海市",
            "area":"浦东新区",
            "street_id":"b482689a37d51149f603b8ff",
            "telephone":"(021)50125767",
            "detail":1,
            "uid":"b482689a37d51149f603b8ff"
        },
        {
            "name":"中国农业银行(上海海阳路支行)",
            "location":{
                "lat":31.16324,
                "lng":121.509338
            },
            "address":"上海市浦东新区海阳路858号",
            "province":"上海市",
            "city":"上海市",
            "area":"浦东新区",
            "street_id":"9cda6370eeb1a9f0095cb30b",
            "telephone":"(021)50478201",
            "detail":1,
            "uid":"9cda6370eeb1a9f0095cb30b"
        },
        {
            "name":"中国农业银行(上海徐汇滨江支行)",
            "location":{
                "lat":31.19276,
                "lng":121.465322
            },
            "address":"上海市徐汇区龙华中路598号正大乐城F1",
            "province":"上海市",
            "city":"上海市",
            "area":"徐汇区",
            "street_id":"0560a50a93be12faa6da39c2",
            "telephone":"(021)64280979",
            "detail":1,
            "uid":"0560a50a93be12faa6da39c2"
        },
        {
            "name":"中国农业银行(上海樱桃苑分理处)",
            "location":{
                "lat":31.152895,
                "lng":121.530099
            },
            "address":"上海市浦东新区三林路1537号",
            "province":"上海市",
            "city":"上海市",
            "area":"浦东新区",
            "street_id":"9fbfeef21d542a46ede4a566",
            "telephone":"(021)50659244",
            "detail":1,
            "uid":"9fbfeef21d542a46ede4a566"
        },
        {
            "name":"中国农业银行(上海永泰路支行)",
            "location":{
                "lat":31.144807,
                "lng":121.521625
            },
            "address":"上海市浦东新区永泰路531-535号",
            "province":"上海市",
            "city":"上海市",
            "area":"浦东新区",
            "street_id":"e889a744ef052ec88605bfc9",
            "telephone":"(021)50104208,(021)50114841",
            "detail":1,
            "uid":"e889a744ef052ec88605bfc9"
        },
        {
            "name":"中国农业银行(上海东新路支行)",
            "location":{
                "lat":31.248133,
                "lng":121.433161
            },
            "address":"上海市普陀区东新路110号",
            "province":"上海市",
            "city":"上海市",
            "area":"普陀区",
            "street_id":"a3e8341cdb2b34e84afd3fea",
            "telephone":"(021)62034922",
            "detail":1,
            "uid":"a3e8341cdb2b34e84afd3fea"
        },
        {
            "name":"中国农业银行(上海马戏城支行)",
            "location":{
                "lat":31.286071,
                "lng":121.459502
            },
            "address":"上海市静安区广中路977号",
            "province":"上海市",
            "city":"上海市",
            "area":"静安区",
            "street_id":"61f634f6abaa53056a49f386",
            "telephone":"(021)56035237",
            "detail":1,
            "uid":"61f634f6abaa53056a49f386"
        },
        {
            "name":"中国农业银行(上海兰溪路支行)",
            "location":{
                "lat":31.251711,
                "lng":121.409086
            },
            "address":"上海市普陀区兰溪路228号",
            "province":"上海市",
            "city":"上海市",
            "area":"普陀区",
            "street_id":"cd9d05dd37bb3ab785420efc",
            "telephone":"(021)52668725",
            "detail":1,
            "uid":"cd9d05dd37bb3ab785420efc"
        },
        {
            "name":"中国农业银行(上海安远路支行)",
            "location":{
                "lat":31.241263,
                "lng":121.440032
            },
            "address":"上海市静安区安远路793至795号",
            "province":"上海市",
            "city":"上海市",
            "area":"静安区",
            "street_id":"ddeac84d74a416f240afe639",
            "telephone":"(021)33535711",
            "detail":1,
            "uid":"ddeac84d74a416f240afe639"
        },
        {
            "name":"中国农业银行(上海曹家渡支行)",
            "location":{
                "lat":31.234152,
                "lng":121.437406
            },
            "address":"上海市静安区万航渡路777号",
            "province":"上海市",
            "city":"上海市",
            "area":"静安区",
            "street_id":"f633606a25f2544f0a69d982",
            "telephone":"(021)62303585,(021)33533608",
            "detail":1,
            "uid":"f633606a25f2544f0a69d982"
        },
        {
            "name":"中国农业银行(上海迎乐路支行)",
            "location":{
                "lat":31.215209,
                "lng":121.354835
            },
            "address":"上海市长宁区迎乐路110、112、116号",
            "province":"上海市",
            "city":"上海市",
            "area":"长宁区",
            "street_id":"86d9d4ad3706c83ce81e97ed",
            "telephone":"(021)62390065",
            "detail":1,
            "uid":"86d9d4ad3706c83ce81e97ed"
        },
        {
            "name":"中国农业银行(上海金沙江路支行)",
            "location":{
                "lat":31.242916,
                "lng":121.375614
            },
            "address":"上海市普陀区金沙江路2182号",
            "province":"上海市",
            "city":"上海市",
            "area":"普陀区",
            "street_id":"fd007c5e2fd7246da8f729c4",
            "telephone":"(021)52691301",
            "detail":1,
            "uid":"fd007c5e2fd7246da8f729c4"
        },
        {
            "name":"中国农业银行(上海凌云路支行)",
            "location":{
                "lat":31.144168,
                "lng":121.424254
            },
            "address":"上海市梅陇路300号",
            "province":"上海市",
            "city":"上海市",
            "area":"徐汇区",
            "street_id":"11ee85376e194574eb56fa30",
            "telephone":"(021)34701916",
            "detail":1,
            "uid":"f1f5cac5fd465e9937b06cb0"
        },
        {
            "name":"中国农业银行(上海书院分理处)",
            "location":{
                "lat":30.931679,
                "lng":121.873191
            },
            "address":"上海市南汇区书院镇书院大街1181号",
            "province":"上海市",
            "city":"上海市",
            "area":"浦东新区",
            "street_id":"07f3c8b52bf24f626340a987",
            "telephone":"(021)58063232",
            "detail":1,
            "uid":"07f3c8b52bf24f626340a987"
        },
        {
            "name":"中国农业银行(上海华夏二路支行)",
            "location":{
                "lat":31.195187,
                "lng":121.691832
            },
            "address":"上海市浦东新区川沙镇华夏二路500号",
            "province":"上海市",
            "city":"上海市",
            "area":"浦东新区",
            "street_id":"c8d60468a4ec50c917948ea3",
            "telephone":"(021)38920799",
            "detail":1,
            "uid":"c8d60468a4ec50c917948ea3"
        },
        {
            "name":"中国农业银行(上海新港分理处)",
            "location":{
                "lat":30.98861,
                "lng":121.874327
            },
            "address":"上海市南汇区书院镇南果公路781号",
            "province":"上海市",
            "city":"上海市",
            "area":"浦东新区",
            "street_id":"f4a33da9efeec9083110af87",
            "telephone":"(021)58196721",
            "detail":1,
            "uid":"f4a33da9efeec9083110af87"
        },
        {
            "name":"中国农业银行(上海江杨路支行)",
            "location":{
                "lat":31.319658,
                "lng":121.473619
            },
            "address":"上海市静安区汾西路42号",
            "province":"上海市",
            "city":"上海市",
            "area":"静安区",
            "street_id":"34f68ab0ffde1a778e55ec86",
            "telephone":"(021)56833576",
            "detail":1,
            "uid":"34f68ab0ffde1a778e55ec86"
        },
        {
            "name":"中国农业银行(上海临汾路支行)",
            "location":{
                "lat":31.317091,
                "lng":121.447887
            },
            "address":"上海市静安区临汾路1276号",
            "province":"上海市",
            "city":"上海市",
            "area":"静安区",
            "street_id":"e60a7dc6104258a52afc486c",
            "telephone":"(021)56981021",
            "detail":1,
            "uid":"e60a7dc6104258a52afc486c"
        },
        {
            "name":"中国农业银行(上海延吉中路支行)",
            "location":{
                "lat":31.28849,
                "lng":121.534327
            },
            "address":"上海市延吉中路309号",
            "province":"上海市",
            "city":"上海市",
            "area":"杨浦区",
            "street_id":"4edf9fbf0a22d595cc06a4d0",
            "telephone":"(021)55805965",
            "detail":1,
            "uid":"4edf9fbf0a22d595cc06a4d0"
        }
    ]
}