{
    "status":0,
    "message":"ok",
    "total":400,
    "results":[
        {
            "name":"中国建设银行(上海广中路支行)",
            "location":{
                "lat":31.285291,
                "lng":121.471891
            },
            "address":"上海市虹口区株洲路391号",
            "province":"上海市",
            "city":"上海市",
            "area":"虹口区",
            "street_id":"fd98bfafb530ef15c9c3db7e",
            "telephone":"(021)56330592",
            "detail":1,
            "uid":"fd98bfafb530ef15c9c3db7e"
        },
        {
            "name":"中国建设银行(上海四平路支行)",
            "location":{
                "lat":31.272079,
                "lng":121.498203
            },
            "address":"上海市虹口区四平路337号",
            "province":"上海市",
            "city":"上海市",
            "area":"虹口区",
            "street_id":"fd007c5e2eb6256da8f72927",
            "telephone":"(021)65752714",
            "detail":1,
            "uid":"fd007c5e2eb6256da8f72927"
        },
        {
            "name":"中国建设银行(上海天目东路支行)",
            "location":{
                "lat":31.255092,
                "lng":121.48127
            },
            "address":"上海市天目东路228号",
            "province":"上海市",
            "city":"上海市",
            "area":"静安区",
            "street_id":"0ed20a157f05a09657bffffb",
            "telephone":"(021)63649840",
            "detail":1,
            "uid":"0ed20a157f05a09657bffffb"
        },
        {
            "name":"中国建设银行(上海浦城路支行)",
            "location":{
                "lat":31.225842,
                "lng":121.522806
            },
            "address":"上海市浦东新区浦城路812号",
            "province":"上海市",
            "city":"上海市",
            "area":"浦东新区",
            "street_id":"261e858dc4b8e402102935a1",
            "detail":1,
            "uid":"261e858dc4b8e402102935a1"
        },
        {
            "name":"中国建设银行(上海徐家汇路支行)",
            "location":{
                "lat":31.215038,
                "lng":121.489365
            },
            "address":"上海市黄浦区制造局路130号",
            "province":"上海市",
            "city":"上海市",
            "area":"黄浦区",
            "street_id":"28e700f12bed0500085cb38e",
            "telephone":"(021)63280948",
            "detail":1,
            "uid":"28e700f12bed0500085cb38e"
        },
        {
            "name":"中国建设银行(上海康沈路支行)",
            "location":{
                "lat":31.122889,
                "lng":121.582596
            },
            "address":"上海市浦东新区康沈路1616号",
            "province":"上海市",
            "city":"上海市",
            "area":"浦东新区",
            "street_id":"1dc38a9b64582b151b11d50b",
            "telephone":"(021)58112630",
            "detail":1,
            "uid":"1dc38a9b64582b151b11d50b"
        },
        {
            "name":"中国建设银行(上海大木桥路支行)",
            "location":{
                "lat":31.199939,
                "lng":121.469896
            },
            "address":"上海市大木桥路588号",
            "province":"上海市",
            "city":"上海市",
            "area":"徐汇区",
            "street_id":"6835e3a7c1cda24fe31103c6",
            "telephone":"(021)64160912",
            "detail":1,
            "uid":"6835e3a7c1cda24fe31103c6"
        },
        {
            "name":"中国建设银行(上海周家渡支行)",
            "location":{
                "lat":31.184733,
                "lng":121.504534
            },
            "address":"上海浦东新区洪山路120号",
            "province":"上海市",
            "city":"上海市",
            "area":"浦东新区",
            "street_id":"6ee01020844b5fee52e5c55c",
            "telephone":"(021)50561079",
            "detail":1,
            "uid":"6ee01020844b5fee52e5c55c"
        },
        {
            "name":"中国建设银行(上海环林东路支行)",
            "location":{
                "lat":31.15383,
                "lng":121.533015
            },
            "address":"上海市浦东新区三林路1665号",
            "province":"上海市",
            "city":"上海市",
            "area":"浦东新区",
            "street_id":"bb4cab08da60e20fbfa82248",
            "telephone":"(021)50492307",
            "detail":1,
            "uid":"bb4cab08da60e20fbfa82248"
        },
        {
            "name":"中国建设银行(上海延长路支行)",
            "location":{
                "lat":31.276164,
                "lng":121.457363
            },
            "address":"上海市延长中路523号",
            "province":"上海市",
            "city":"上海市",
            "area":"静安区",
            "street_id":"be1ea5efa1fcb6be14948eed",
            "telephone":"(021)56657714",
            "detail":1,
            "uid":"be1ea5efa1fcb6be14948eed"
        },
        {
            "name":"中国建设银行(上海芷江路支行)",
            "location":{
                "lat":31.262702,
                "lng":121.462081
            },
            "address":"上海市静安区芷江西路666号",
            "province":"上海市",
            "city":"上海市",
            "area":"静安区",
            "street_id":"74c933fbe099d0239f82ea86",
            "telephone":"(021)51603219",
            "detail":1,
            "uid":"74c933fbe099d0239f82ea86"
        },
        {
            "name":"中国建设银行(上海交通路支行)",
            "location":{
                "lat":31.27347,
                "lng":121.397579
            },
            "address":"交通路4687号",
            "province":"上海市",
            "city":"上海市",
            "area":"普陀区",
            "street_id":"96575b26359c1cbfe311039f",
            "telephone":"(021)66985770",
            "detail":1,
            "uid":"96575b26359c1cbfe311039f"
        },
        {
            "name":"中国建设银行(上海曹家渡支行)",
            "location":{
                "lat":31.234731,
                "lng":121.435399
            },
            "address":"万航渡路888号(一楼东面大厅)",
            "province":"上海市",
            "city":"上海市",
            "area":"静安区",
            "street_id":"aa40108b86020e16c5effbfa",
            "telephone":"(021)62127569",
            "detail":1,
            "uid":"aa40108b86020e16c5effbfa"
        },
        {
            "name":"中国建设银行(上海国际丽都支行)",
            "location":{
                "lat":31.23983,
                "lng":121.464004
            },
            "address":"新闸路965号",
            "province":"上海市",
            "city":"上海市",
            "area":"静安区",
            "street_id":"b7021bf8b1d07f87f4e73bea",
            "telephone":"(021)62711926",
            "detail":1,
            "uid":"b7021bf8b1d07f87f4e73bea"
        },
        {
            "name":"中国建设银行(上海延安路支行)",
            "location":{
                "lat":31.225338,
                "lng":121.443557
            },
            "address":"上海市静安区镇宁路200号欣安大厦1楼",
            "province":"上海市",
            "city":"上海市",
            "area":"静安区",
            "street_id":"f696f3c2a61ef5ea1a11d582",
            "telephone":"(021)62261037",
            "detail":1,
            "uid":"f696f3c2a61ef5ea1a11d582"
        },
        {
            "name":"中国建设银行(上海襄阳路支行)",
            "location":{
                "lat":31.220565,
                "lng":121.463247
            },
            "address":"襄阳南路102号一层",
            "province":"上海市",
            "city":"上海市",
            "area":"徐汇区",
            "street_id":"78bd50f794989f5a31870ac6",
            "telephone":"(021)64261203",
            "detail":1,
            "uid":"78bd50f794989f5a31870ac6"
        },
        {
            "name":"中国建设银行(上海曹杨路支行)",
            "location":{
                "lat":31.243912,
                "lng":121.42479
            },
            "address":"曹杨路534号",
            "province":"上海市",
            "city":"上海市",
            "area":"普陀区",
            "street_id":"9ee7cc78cc3a797116c905fc",
            "telephone":"(021)32130071",
            "detail":1,
            "uid":"9ee7cc78cc3a797116c905fc"
        },
        {
            "name":"中国建设银行(上海水城路支行)",
            "location":{
                "lat":31.216099,
                "lng":121.397298
            },
            "address":"水城路555号",
            "province":"上海市",
            "city":"上海市",
            "area":"长宁区",
            "street_id":"606ab0d0c366f72b0e3dda0c",
            "telephone":"(021)62413078",
            "detail":1,
            "uid":"606ab0d0c366f72b0e3dda0c"
        },
        {
            "name":"中国建设银行(上海威宁路支行)",
            "location":{
                "lat":31.221076,
                "lng":121.392153
            },
            "address":"天山路316号临",
            "province":"上海市",
            "city":"上海市",
            "area":"长宁区",
            "street_id":"e7668ef460e495b4631809e1",
            "telephone":"(021)52045752",
            "detail":1,
            "uid":"e7668ef460e495b4631809e1"
        },
        {
            "name":"中国建设银行(上海遵义路支行)",
            "location":{
                "lat":31.222906,
                "lng":121.414063
            },
            "address":"长宁路1553-1555号",
            "province":"上海市",
            "city":"上海市",
            "area":"长宁区",
            "street_id":"2cc3c8e86ea761d74d2fdf0c",
            "telephone":"(021)52736147",
            "detail":1,
            "uid":"2cc3c8e86ea761d74d2fdf0c"
        }
    ]
}