{
    "status":0,
    "message":"ok",
    "total":400,
    "results":[
        {
            "name":"中国建设银行(上海六灶支行)",
            "location":{
                "lat":31.115095,
                "lng":121.712651
            },
            "address":"六灶崇溪路32-40号",
            "province":"上海市",
            "city":"上海市",
            "area":"浦东新区",
            "street_id":"1bf85b25876f08a5a0a934bb",
            "telephone":"(021)58160707",
            "detail":1,
            "uid":"1bf85b25876f08a5a0a934bb"
        },
        {
            "name":"中国建设银行(图们路支行)",
            "location":{
                "lat":31.295554,
                "lng":121.555902
            },
            "address":"上海市杨浦区控江路65号",
            "province":"上海市",
            "city":"上海市",
            "area":"杨浦区",
            "street_id":"cc788fdeaf5087f688fc0600",
            "telephone":"(021)65041372",
            "detail":1,
            "uid":"cc788fdeaf5087f688fc0600"
        },
        {
            "name":"中国建设银行(上海张江支行)",
            "location":{
                "lat":31.214331,
                "lng":121.594138
            },
            "address":"上海浦东新区科苑路220号",
            "province":"上海市",
            "city":"上海市",
            "area":"浦东新区",
            "street_id":"22e1140764b9e2b5d5b74e49",
            "telephone":"(021)50803629",
            "detail":1,
            "uid":"22e1140764b9e2b5d5b74e49"
        },
        {
            "name":"中国建设银行(上海虹口支行)",
            "location":{
                "lat":31.253306,
                "lng":121.495978
            },
            "address":"上海市虹口区吴淞路211号",
            "province":"上海市",
            "city":"上海市",
            "area":"虹口区",
            "street_id":"850815e125ed249a43e1922d",
            "telephone":"(021)63578538",
            "detail":1,
            "uid":"850815e125ed249a43e1922d"
        },
        {
            "name":"中国建设银行(上海外滩支行)",
            "location":{
                "lat":31.228584,
                "lng":121.509313
            },
            "address":"中山南路218号",
            "province":"上海市",
            "city":"上海市",
            "area":"黄浦区",
            "street_id":"3ee0cec65f398ac38c1a8972",
            "telephone":"(021)63321598",
            "detail":1,
            "uid":"3ee0cec65f398ac38c1a8972"
        },
        {
            "name":"中国建设银行(上海黄浦支行)",
            "location":{
                "lat":31.231797,
                "lng":121.488184
            },
            "address":"上海市黄浦区淮海东路85号",
            "province":"上海市",
            "city":"上海市",
            "area":"黄浦区",
            "street_id":"06d2dffd5f0486f788f15d5e",
            "telephone":"(021)63748585",
            "detail":1,
            "uid":"06d2dffd5f0486f788f15d5e"
        },
        {
            "name":"中国建设银行(上海周浦支行)",
            "location":{
                "lat":31.119853,
                "lng":121.576337
            },
            "address":"周浦镇年家浜路471号",
            "province":"上海市",
            "city":"上海市",
            "area":"浦东新区",
            "street_id":"d991e1166d72cc541e3894be",
            "telephone":"(021)58118574",
            "detail":1,
            "uid":"d991e1166d72cc541e3894be"
        },
        {
            "name":"中国建设银行(上海康桥支行)",
            "location":{
                "lat":31.155347,
                "lng":121.572586
            },
            "address":"康桥镇沪南公路2586号",
            "province":"上海市",
            "city":"上海市",
            "area":"浦东新区",
            "street_id":"dfc9f9742ae399f5276e98c7",
            "telephone":"(021)58121861",
            "detail":1,
            "uid":"dfc9f9742ae399f5276e98c7"
        },
        {
            "name":"中国建设银行(上海昌里支行)",
            "location":{
                "lat":31.183895,
                "lng":121.519982
            },
            "address":"上海浦东新区昌里东路409号",
            "province":"上海市",
            "city":"上海市",
            "area":"浦东新区",
            "street_id":"0dc3d82d97c1746d75e5b64e",
            "telephone":"(021)68366167",
            "detail":1,
            "uid":"0dc3d82d97c1746d75e5b64e"
        },
        {
            "name":"中国建设银行(上海东明支行)",
            "location":{
                "lat":31.148293,
                "lng":121.530072
            },
            "address":"上海浦东新区永泰路965号",
            "province":"上海市",
            "city":"上海市",
            "area":"浦东新区",
            "street_id":"35debf29c13c1a45a7da39a6",
            "telephone":"(021)50838501",
            "detail":1,
            "uid":"35debf29c13c1a45a7da39a6"
        },
        {
            "name":"中国建设银行(上海三林支行)",
            "location":{
                "lat":31.148879,
                "lng":121.506245
            },
            "address":"上海浦东新区凌兆路456号",
            "province":"上海市",
            "city":"上海市",
            "area":"浦东新区",
            "street_id":"3f9337d6457dddb2f62310a5",
            "telephone":"(021)58411346",
            "detail":1,
            "uid":"3f9337d6457dddb2f62310a5"
        },
        {
            "name":"中国建设银行(仙霞路支行)",
            "location":{
                "lat":31.210132,
                "lng":121.414799
            },
            "address":"上海市长宁区仙霞路8号",
            "province":"上海市",
            "city":"上海市",
            "area":"长宁区",
            "street_id":"00be003957da005fa2d23091",
            "telephone":"(021)62788555",
            "detail":1,
            "uid":"00be003957da005fa2d23091"
        },
        {
            "name":"中国建设银行(上海天山支行)",
            "location":{
                "lat":31.217021,
                "lng":121.408267
            },
            "address":"天山路767号",
            "province":"上海市",
            "city":"上海市",
            "area":"长宁区",
            "street_id":"5e53af1af1ca99234151c03c",
            "telephone":"(021)32036198",
            "detail":1,
            "uid":"5e53af1af1ca99234151c03c"
        },
        {
            "name":"中国建设银行(上海机场支行)",
            "location":{
                "lat":31.193252,
                "lng":121.354731
            },
            "address":"虹桥路2550号虹桥国际机场内",
            "province":"上海市",
            "city":"上海市",
            "area":"长宁区",
            "street_id":"0705a160dcc9ed3ad0ff2333",
            "telephone":"(021)22351239",
            "detail":1,
            "uid":"0705a160dcc9ed3ad0ff2333"
        },
        {
            "name":"中国建设银行(上海临港支行)",
            "location":{
                "lat":30.878171,
                "lng":121.826773
            },
            "address":"上海浦东新区新元南路555号B-3",
            "province":"上海市",
            "city":"上海市",
            "area":"浦东新区",
            "street_id":"f696f3c2a520f6ea1a11d584",
            "telephone":"(021)68284258",
            "detail":1,
            "uid":"f696f3c2a520f6ea1a11d584"
        },
        {
            "name":"中国建设银行(上海卢湾支行)",
            "location":{
                "lat":31.212829,
                "lng":121.477672
            },
            "address":"徐家汇路530号",
            "province":"上海市",
            "city":"上海市",
            "area":"黄浦区",
            "street_id":"881a28e7ede7c646f842b28e",
            "telephone":"(021)64730233",
            "detail":1,
            "uid":"881a28e7ede7c646f842b28e"
        },
        {
            "name":"中国建设银行营业厅",
            "location":{
                "lat":31.319634,
                "lng":121.612922
            },
            "address":"上海市浦东新区加枫路17号",
            "province":"上海市",
            "city":"上海市",
            "area":"浦东新区",
            "street_id":"8d1ed7348a37a5ba3b221c7a",
            "telephone":"(021)50367253",
            "detail":1,
            "uid":"8d1ed7348a37a5ba3b221c7a"
        },
        {
            "name":"中国建设银行(上海龙东大道支行)",
            "location":{
                "lat":31.241406,
                "lng":121.688409
            },
            "address":"上海浦东新区丽雅路115号—121号",
            "province":"上海市",
            "city":"上海市",
            "area":"浦东新区",
            "street_id":"bba87388829862a1bca8227f",
            "telephone":"(021)58586972",
            "detail":1,
            "uid":"bba87388829862a1bca8227f"
        },
        {
            "name":"中国建设银行(上海营口路支行)",
            "location":{
                "lat":31.309002,
                "lng":121.538676
            },
            "address":"安波路295号",
            "province":"上海市",
            "city":"上海市",
            "area":"杨浦区",
            "street_id":"d991e1166a84cd541f3894d0",
            "telephone":"(021)65496083",
            "detail":1,
            "uid":"d991e1166a84cd541f3894d0"
        },
        {
            "name":"中国建设银行(上海国顺路支行)",
            "location":{
                "lat":31.297297,
                "lng":121.525883
            },
            "address":"黄兴路1737号",
            "province":"上海市",
            "city":"上海市",
            "area":"杨浦区",
            "street_id":"208de2c64032f9f5d42ce25e",
            "telephone":"(021)55122651",
            "detail":1,
            "uid":"208de2c64032f9f5d42ce25e"
        }
    ]
}