{
    "status":0,
    "message":"ok",
    "total":400,
    "results":[
        {
            "name":"中国建设银行(上海北新泾支行)",
            "location":{
                "lat":31.223625,
                "lng":121.37508
            },
            "address":"剑河路270号",
            "province":"上海市",
            "city":"上海市",
            "area":"长宁区",
            "street_id":"49d959385e736542c61e5118",
            "telephone":"(021)62395950",
            "detail":1,
            "uid":"49d959385e736542c61e5118"
        },
        {
            "name":"中国建设银行(上海罗香路支行)",
            "location":{
                "lat":31.142078,
                "lng":121.446776
            },
            "address":"上海市徐汇区罗香路90号",
            "province":"上海市",
            "city":"上海市",
            "area":"徐汇区",
            "street_id":"5f0ae1111a9b645d09b93a4f",
            "telephone":"(021)54339232",
            "detail":1,
            "uid":"5f0ae1111a9b645d09b93a4f"
        },
        {
            "name":"中国建设银行(上海临港新城支行)",
            "location":{
                "lat":30.901277,
                "lng":121.932954
            },
            "address":"上海市浦东新区南汇新城镇环湖西一路333号城投大厦1层",
            "province":"上海市",
            "city":"上海市",
            "area":"浦东新区",
            "street_id":"c8b5cdef843e837d130daafe",
            "telephone":"(021)38072026",
            "detail":1,
            "uid":"c8b5cdef843e837d130daafe"
        },
        {
            "name":"中国建设银行(上海城南路支行)",
            "location":{
                "lat":31.198517,
                "lng":121.711114
            },
            "address":"上海浦东新区川沙镇川黄路126号",
            "province":"上海市",
            "city":"上海市",
            "area":"浦东新区",
            "street_id":"ef773a0fe4cd72352202207f",
            "detail":1,
            "uid":"ef773a0fe4cd72352202207f"
        },
        {
            "name":"中国建设银行(上海斜土路支行)",
            "location":{
                "lat":31.199799,
                "lng":121.457398
            },
            "address":"上海市徐汇区斜土路2090号底楼",
            "province":"上海市",
            "city":"上海市",
            "area":"徐汇区",
            "street_id":"7d5f3a0a3f63514a2cb908c6",
            "telephone":"(021)34160550",
            "detail":1,
            "uid":"7d5f3a0a3f63514a2cb908c6"
        },
        {
            "name":"中国建设银行(上海程家桥支行)",
            "location":{
                "lat":31.196817,
                "lng":121.381717
            },
            "address":"剑河路2323号",
            "province":"上海市",
            "city":"上海市",
            "area":"长宁区",
            "street_id":"373cf757767a2e6f4354d70c",
            "telephone":"(021)62427613",
            "detail":1,
            "uid":"373cf757767a2e6f4354d70c"
        },
        {
            "name":"中国建设银行(上海市分行科教中心)",
            "location":{
                "lat":31.19887,
                "lng":121.568218
            },
            "address":"上海市浦东新区申波路292号",
            "province":"上海市",
            "city":"上海市",
            "area":"浦东新区",
            "street_id":"43b7e8895e16806b58f6be52",
            "telephone":"(021)50371772",
            "detail":1,
            "uid":"43b7e8895e16806b58f6be52"
        },
        {
            "name":"中国建设银行(长宁支行公积金业务部)",
            "location":{
                "lat":31.221957,
                "lng":121.428781
            },
            "address":"上海市长宁区定西路1281号兆仪大厦301室",
            "province":"上海市",
            "city":"上海市",
            "area":"长宁区",
            "street_id":"98ffc3e2d259051af60e778c",
            "detail":1,
            "uid":"98ffc3e2d259051af60e778c"
        },
        {
            "name":"中国建设银行(梅家浜路支行)",
            "location":{
                "lat":31.057935,
                "lng":121.235816
            },
            "address":"上海市松江区梅家浜路1507号",
            "province":"上海市",
            "city":"上海市",
            "area":"松江区",
            "street_id":"8faeec082eb7d2d53586f4b1",
            "telephone":"(021)67675217,(021)67675205",
            "detail":1,
            "uid":"8faeec082eb7d2d53586f4b1"
        },
        {
            "name":"中国建设银行(莘松路支行)",
            "location":{
                "lat":31.104497,
                "lng":121.360063
            },
            "address":"上海市松江区莘松路1104-1106号(春九路莘松路)",
            "province":"上海市",
            "city":"上海市",
            "area":"松江区",
            "street_id":"56e88cba5aba4864a5c7569a",
            "telephone":"(021)67750021",
            "detail":1,
            "uid":"56e88cba5aba4864a5c7569a"
        },
        {
            "name":"中国建设银行(车墩支行)",
            "location":{
                "lat":31.019948,
                "lng":121.320906
            },
            "address":"上海市松江区影视路28弄1号",
            "province":"上海市",
            "city":"上海市",
            "area":"松江区",
            "street_id":"cdd3e34430d3b0b9b817e7d4",
            "telephone":"(021)57602491",
            "detail":1,
            "uid":"cdd3e34430d3b0b9b817e7d4"
        },
        {
            "name":"中国建设银行(南桥支行)",
            "location":{
                "lat":30.913966,
                "lng":121.468485
            },
            "address":"上海市奉贤区南桥人民南路166号",
            "province":"上海市",
            "city":"上海市",
            "area":"奉贤区",
            "street_id":"4eb3b53303a72776430245f0",
            "telephone":"(021)67113137",
            "detail":1,
            "uid":"4eb3b53303a72776430245f0"
        },
        {
            "name":"中国建设银行(北门支行)",
            "location":{
                "lat":31.153544,
                "lng":121.111348
            },
            "address":"上海市青浦区城中西路308号",
            "province":"上海市",
            "city":"上海市",
            "area":"青浦区",
            "street_id":"81d6a509a7be13436e20b95e",
            "telephone":"(021)59853915",
            "detail":1,
            "uid":"81d6a509a7be13436e20b95e"
        },
        {
            "name":"中国建设银行(松江支行)",
            "location":{
                "lat":31.015203,
                "lng":121.234724
            },
            "address":"上海市松江区人民北路151号1幢北区",
            "province":"上海市",
            "city":"上海市",
            "area":"松江区",
            "street_id":"af1ae56b8a1ebc134207c1e7",
            "telephone":"(021)57725533,(021)57721746",
            "detail":1,
            "uid":"af1ae56b8a1ebc134207c1e7"
        },
        {
            "name":"中国建设银行(上海新场支行)",
            "location":{
                "lat":31.030703,
                "lng":121.652745
            },
            "address":"上海市浦东新区新场大街345号",
            "province":"上海市",
            "city":"上海市",
            "area":"浦东新区",
            "street_id":"28e700f12bdb0500085cb380",
            "telephone":"(021)58171674",
            "detail":1,
            "uid":"878574c965305722621c67be"
        },
        {
            "name":"中国建设银行(上海吴淞支行)",
            "location":{
                "lat":31.379563,
                "lng":121.503281
            },
            "address":"淞滨路137号",
            "province":"上海市",
            "city":"上海市",
            "area":"宝山区",
            "street_id":"4eb3b533e9323d7443024568",
            "telephone":"(021)56671348",
            "detail":1,
            "uid":"4eb3b533e9323d7443024568"
        },
        {
            "name":"中国建设银行(上海淞南支行)",
            "location":{
                "lat":31.342062,
                "lng":121.488158
            },
            "address":"长江南路538号",
            "province":"上海市",
            "city":"上海市",
            "area":"宝山区",
            "street_id":"3dc9befdb2eab317bea24068",
            "telephone":"(021)56145514",
            "detail":1,
            "uid":"3dc9befdb2eab317bea24068"
        },
        {
            "name":"中国建设银行(上海彭浦支行)",
            "location":{
                "lat":31.317127,
                "lng":121.468255
            },
            "address":"上海市临汾路272号",
            "province":"上海市",
            "city":"上海市",
            "area":"静安区",
            "street_id":"bfdf9ffa0123f226aeb22ac8",
            "telephone":"(021)56888569",
            "detail":1,
            "uid":"bfdf9ffa0123f226aeb22ac8"
        },
        {
            "name":"中国建设银行(上海罗店支行)",
            "location":{
                "lat":31.42119,
                "lng":121.354717
            },
            "address":"罗店镇市一路169号",
            "province":"上海市",
            "city":"上海市",
            "area":"宝山区",
            "street_id":"f44609182e39ed6bb11e3671",
            "telephone":"(021)56864866",
            "detail":1,
            "uid":"f44609182e39ed6bb11e3671"
        },
        {
            "name":"中国建设银行(上海斜桥支行)",
            "location":{
                "lat":31.210585,
                "lng":121.49069
            },
            "address":"上海市黄浦区制造局路468号",
            "province":"上海市",
            "city":"上海市",
            "area":"黄浦区",
            "street_id":"22ef6ed1d6ffeb292806ce80",
            "telephone":"(021)63774820,(021)63774698",
            "detail":1,
            "uid":"22ef6ed1d6ffeb292806ce80"
        }
    ]
}