{
    "status":0,
    "message":"ok",
    "total":400,
    "results":[
        {
            "name":"中国农业银行(上海国货路支行)",
            "location":{
                "lat":31.214243,
                "lng":121.502895
            },
            "address":"上海市国货路172号甲",
            "province":"上海市",
            "city":"上海市",
            "area":"黄浦区",
            "street_id":"0dc3d82d96d1776d75e5b65e",
            "telephone":"(021)63131597",
            "detail":1,
            "uid":"0dc3d82d96d1776d75e5b65e"
        },
        {
            "name":"中国农业银行(上海老西门支行)",
            "location":{
                "lat":31.223236,
                "lng":121.49269
            },
            "address":"上海市黄浦区中华路1359号",
            "province":"上海市",
            "city":"上海市",
            "area":"黄浦区",
            "street_id":"6835e3a74a82254fe3110312",
            "telephone":"(021)63774535",
            "detail":1,
            "uid":"6835e3a74a82254fe3110312"
        },
        {
            "name":"中国农业银行(上海西藏南路支行)",
            "location":{
                "lat":31.233268,
                "lng":121.486051
            },
            "address":"上海市黄浦区西藏南路123号",
            "province":"上海市",
            "city":"上海市",
            "area":"黄浦区",
            "street_id":"2a7a25ec4390fd1d6c3e1b73",
            "telephone":"(021)63112440",
            "detail":1,
            "uid":"2a7a25ec4390fd1d6c3e1b73"
        },
        {
            "name":"中国农业银行(上海年家浜支行)",
            "location":{
                "lat":31.12135,
                "lng":121.588252
            },
            "address":"上海市浦东新区周浦镇年家浜路181-187号",
            "province":"上海市",
            "city":"上海市",
            "area":"浦东新区",
            "telephone":"(021)68126704",
            "detail":1,
            "uid":"dd1e790a3baa188223022026"
        },
        {
            "name":"中国农业银行(上海周浦镇支行)",
            "location":{
                "lat":31.123327,
                "lng":121.582268
            },
            "address":"上海市南汇区周浦镇康沈路1610号",
            "province":"上海市",
            "city":"上海市",
            "area":"浦东新区",
            "street_id":"6ed3083a8ddc2db62a3a9fbe",
            "telephone":"(021)58111234",
            "detail":1,
            "uid":"6ed3083a8ddc2db62a3a9fbe"
        },
        {
            "name":"中国农业银行(上海周东路支行)",
            "location":{
                "lat":31.132058,
                "lng":121.589073
            },
            "address":"上海市浦东新区周东路820号",
            "province":"上海市",
            "city":"上海市",
            "area":"浦东新区",
            "street_id":"d5a5a869430c56066d20b99e",
            "telephone":"(021)68113608",
            "detail":1,
            "uid":"d5a5a869430c56066d20b99e"
        },
        {
            "name":"中国农业银行(上海三林世博支行)",
            "location":{
                "lat":31.17325,
                "lng":121.54128
            },
            "address":"上海市浦东新区东书房路279号",
            "province":"上海市",
            "city":"上海市",
            "area":"浦东新区",
            "street_id":"f2f15ffb38415289631c6749",
            "telephone":"(021)61345949",
            "detail":1,
            "uid":"f2f15ffb38415289631c6749"
        },
        {
            "name":"中国农业银行(上海普善路支行)",
            "location":{
                "lat":31.271746,
                "lng":121.458218
            },
            "address":"上海市静安区洛川中路858号",
            "province":"上海市",
            "city":"上海市",
            "area":"静安区",
            "street_id":"e93761f616ec0671233bf286",
            "telephone":"(021)56657505",
            "detail":1,
            "uid":"e93761f616ec0671233bf286"
        },
        {
            "name":"中国农业银行(上海陆家宅支行)",
            "location":{
                "lat":31.243755,
                "lng":121.429994
            },
            "address":"上海市普陀区武宁路101号IMAGO我格广场F1",
            "province":"上海市",
            "city":"上海市",
            "area":"普陀区",
            "street_id":"e3e2cd9d4e397de2c7f50dfc",
            "telephone":"(021)52047010",
            "detail":1,
            "uid":"e3e2cd9d4e397de2c7f50dfc"
        },
        {
            "name":"中国农业银行(上海江苏路支行)",
            "location":{
                "lat":31.225202,
                "lng":121.438024
            },
            "address":"上海市长宁区江苏路369号兆丰大厦底楼",
            "province":"上海市",
            "city":"上海市",
            "area":"长宁区",
            "street_id":"89fd4ea3fab44445e5e9655e",
            "detail":1,
            "uid":"89fd4ea3fab44445e5e9655e"
        },
        {
            "name":"中国农业银行(上海真北路支行)",
            "location":{
                "lat":31.239061,
                "lng":121.385523
            },
            "address":"金沙江路1628弄2号",
            "province":"上海市",
            "city":"上海市",
            "area":"普陀区",
            "street_id":"566ba3da82954dd775e5b6f4",
            "telephone":"(021)32519650",
            "detail":1,
            "uid":"566ba3da82954dd775e5b6f4"
        },
        {
            "name":"中国农业银行(上海遵义路支行)",
            "location":{
                "lat":31.217351,
                "lng":121.414524
            },
            "address":"上海市遵义路404至406号",
            "province":"上海市",
            "city":"上海市",
            "area":"长宁区",
            "street_id":"e7e41b5ad9333106c9c3db1b",
            "telephone":"(021)62415261",
            "detail":1,
            "uid":"e7e41b5ad9333106c9c3db1b"
        },
        {
            "name":"中国农业银行(上海洲海路支行)",
            "location":{
                "lat":31.317975,
                "lng":121.595426
            },
            "address":"上海市浦东新区张杨北路3145号1层,3147号1层、3149号1层,3151号1层,3153号1层",
            "province":"上海市",
            "city":"上海市",
            "area":"浦东新区",
            "street_id":"4a2289b799c0354bd72ce2fa",
            "detail":1,
            "uid":"4a2289b799c0354bd72ce2fa"
        },
        {
            "name":"中国农业银行(上海国顺东路支行)",
            "location":{
                "lat":31.307075,
                "lng":121.543658
            },
            "address":"上海市杨浦区国顺东路187至189号",
            "province":"上海市",
            "city":"上海市",
            "area":"杨浦区",
            "street_id":"9ee7cc78a699630e16c90554",
            "telephone":"(021)65488600",
            "detail":1,
            "uid":"9ee7cc78a699630e16c90554"
        },
        {
            "name":"中国农业银行(上海黄兴路支行)",
            "location":{
                "lat":31.299844,
                "lng":121.524507
            },
            "address":"上海市杨浦区黄兴路2009号",
            "province":"上海市",
            "city":"上海市",
            "area":"杨浦区",
            "street_id":"8a9eeb519a40dc2a8f1a89f9",
            "telephone":"(021)65195664",
            "detail":1,
            "uid":"8a9eeb519a40dc2a8f1a89f9"
        },
        {
            "name":"中国农业银行(上海武川路支行)",
            "location":{
                "lat":31.3115,
                "lng":121.497233
            },
            "address":"吉浦路345号",
            "province":"上海市",
            "city":"上海市",
            "area":"杨浦区",
            "telephone":"(021)55399101",
            "detail":1,
            "uid":"ee68bbd9a067105de812e4c4"
        },
        {
            "name":"中国农业银行(上海新市南路支行)",
            "location":{
                "lat":31.300833,
                "lng":121.487838
            },
            "address":"上海市虹口区新市南路585号",
            "province":"上海市",
            "city":"上海市",
            "area":"虹口区",
            "street_id":"c21db9e5ba05938200ff2d27",
            "telephone":"(021)65174676,(021)35307456",
            "detail":1,
            "uid":"c21db9e5ba05938200ff2d27"
        },
        {
            "name":"中国农业银行(上海凉城路支行)",
            "location":{
                "lat":31.29383,
                "lng":121.476806
            },
            "address":"上海市凉城路435号",
            "province":"上海市",
            "city":"上海市",
            "area":"虹口区",
            "street_id":"4ce10ce63190c3a0441a3227",
            "telephone":"(021)65295013",
            "detail":1,
            "uid":"4ce10ce63190c3a0441a3227"
        },
        {
            "name":"中国农业银行(上海平顺路支行)",
            "location":{
                "lat":31.325128,
                "lng":121.461629
            },
            "address":"上海市平顺路931至935号",
            "province":"上海市",
            "city":"上海市",
            "area":"宝山区",
            "street_id":"cde9e2c7e41784b5e81e97ed",
            "telephone":"(021)66838601",
            "detail":1,
            "uid":"cde9e2c7e41784b5e81e97ed"
        },
        {
            "name":"中国农业银行(上海博山路支行)",
            "location":{
                "lat":31.25901,
                "lng":121.574086
            },
            "address":"上海市浦东新区博山东路399号",
            "province":"上海市",
            "city":"上海市",
            "area":"浦东新区",
            "street_id":"2527be1e6f9d69b24afc8d72",
            "telephone":"(021)68507243",
            "detail":1,
            "uid":"2527be1e6f9d69b24afc8d72"
        }
    ]
}