{
    "status":0,
    "message":"ok",
    "total":400,
    "results":[
        {
            "name":"中国建设银行(上海龙茗路支行)",
            "location":{
                "lat":31.159609,
                "lng":121.388959
            },
            "address":"龙茗路1730-1732号",
            "province":"上海市",
            "city":"上海市",
            "area":"闵行区",
            "street_id":"1020060fdcf3afa71894c600",
            "telephone":"(021)54932407",
            "detail":1,
            "uid":"1020060fdcf3afa71894c600"
        },
        {
            "name":"中国建设银行(上海吴中路支行)",
            "location":{
                "lat":31.182911,
                "lng":121.394817
            },
            "address":"吴中路1029号",
            "province":"上海市",
            "city":"上海市",
            "area":"闵行区",
            "street_id":"28e700f12a560400095cb337",
            "telephone":"(021)64015314",
            "detail":1,
            "uid":"28e700f12a560400095cb337"
        },
        {
            "name":"中国建设银行(上海龙州路支行)",
            "location":{
                "lat":31.144673,
                "lng":121.429255
            },
            "address":"上海市徐汇区龙州路925号",
            "province":"上海市",
            "city":"上海市",
            "area":"徐汇区",
            "street_id":"695fbf20a0f47669ee74f842",
            "telephone":"(021)52212032,(021)52212057",
            "detail":1,
            "uid":"695fbf20a0f47669ee74f842"
        },
        {
            "name":"中国建设银行(上海报春路支行)",
            "location":{
                "lat":31.130504,
                "lng":121.395638
            },
            "address":"闵行区报春路342号",
            "province":"上海市",
            "city":"上海市",
            "area":"闵行区",
            "street_id":"bcaebff886dda355c9e33c00",
            "telephone":"(021)64139618",
            "detail":1,
            "uid":"bcaebff886dda355c9e33c00"
        },
        {
            "name":"中国建设银行(上海疏影路支行)",
            "location":{
                "lat":31.125232,
                "lng":121.370976
            },
            "address":"疏影路888号",
            "province":"上海市",
            "city":"上海市",
            "area":"闵行区",
            "street_id":"d219bb1d3ec8abf5f40e77b3",
            "telephone":"(021)34970137",
            "detail":1,
            "uid":"d219bb1d3ec8abf5f40e77b3"
        },
        {
            "name":"中国建设银行(上海沪亭北路支行)",
            "location":{
                "lat":31.155059,
                "lng":121.321964
            },
            "address":"松江区九亭镇沪亭北路660号三层",
            "province":"上海市",
            "city":"上海市",
            "area":"松江区",
            "street_id":"2c8bd236f78ae8f2220262b5",
            "telephone":"(021)67606530",
            "detail":1,
            "uid":"2c8bd236f78ae8f2220262b5"
        },
        {
            "name":"中国建设银行(上海朱家角支行)",
            "location":{
                "lat":31.114842,
                "lng":121.066187
            },
            "address":"上海市青浦区祥凝浜路363号",
            "province":"上海市",
            "city":"上海市",
            "area":"青浦区",
            "street_id":"c7eca12b1f6c1236e015f9b4",
            "telephone":"(021)59240243",
            "detail":1,
            "uid":"c7eca12b1f6c1236e015f9b4"
        },
        {
            "name":"中国建设银行(上海仓汇路支行)",
            "location":{
                "lat":31.022449,
                "lng":121.209243
            },
            "address":"仓汇路680号",
            "province":"上海市",
            "city":"上海市",
            "area":"松江区",
            "street_id":"d987bc8b2441e56e26d2bb1c",
            "telephone":"(021)67711429",
            "detail":1,
            "uid":"d987bc8b2441e56e26d2bb1c"
        },
        {
            "name":"中国建设银行(上海江海路支行)",
            "location":{
                "lat":30.916478,
                "lng":121.46357
            },
            "address":"江海路447号",
            "province":"上海市",
            "city":"上海市",
            "area":"奉贤区",
            "street_id":"637df60ab473527340afe606",
            "telephone":"(021)57410399",
            "detail":1,
            "uid":"637df60ab473527340afe606"
        },
        {
            "name":"中国建设银行(上海通富路支行)",
            "location":{
                "lat":31.542534,
                "lng":121.622485
            },
            "address":"通富路66号",
            "province":"上海市",
            "city":"上海市",
            "area":"崇明区",
            "street_id":"8eb48fa1f48f14a7f32d8354",
            "telephone":"(021)59412808",
            "detail":1,
            "uid":"8eb48fa1f48f14a7f32d8354"
        },
        {
            "name":"中国建设银行(上海双城路支行)",
            "location":{
                "lat":31.396877,
                "lng":121.502311
            },
            "address":"双城路374号",
            "province":"上海市",
            "city":"上海市",
            "area":"宝山区",
            "street_id":"0adce3e281e5056080a00c68",
            "telephone":"(021)56563340",
            "detail":1,
            "uid":"0adce3e281e5056080a00c68"
        },
        {
            "name":"中国建设银行(上海宝地广场支行)",
            "location":{
                "lat":31.266361,
                "lng":121.518316
            },
            "address":"上海市杨浦区大连路宝地广场B座北美广场对面",
            "province":"上海市",
            "city":"上海市",
            "area":"杨浦区",
            "street_id":"dcbc858d1d3d080688f15df6",
            "telephone":"(021)65011509",
            "detail":1,
            "uid":"dcbc858d1d3d080688f15df6"
        },
        {
            "name":"中国建设银行(上海盛苑路支行)",
            "location":{
                "lat":31.166096,
                "lng":121.533473
            },
            "address":"上海浦东新区盛苑路570号",
            "province":"上海市",
            "city":"上海市",
            "area":"浦东新区",
            "street_id":"15c25e9ad8ec8bd9eddfca6e",
            "telephone":"(021)58337865",
            "detail":1,
            "uid":"15c25e9ad8ec8bd9eddfca6e"
        },
        {
            "name":"中国建设银行(上海古美路支行)",
            "location":{
                "lat":31.154076,
                "lng":121.409979
            },
            "address":"古美路789号",
            "province":"上海市",
            "city":"上海市",
            "area":"闵行区",
            "street_id":"b3aa435d9887580815764370",
            "telephone":"(021)54931145",
            "detail":1,
            "uid":"b3aa435d9887580815764370"
        },
        {
            "name":"中国建设银行(上海贵都路支行)",
            "location":{
                "lat":31.080173,
                "lng":121.41032
            },
            "address":"上海市闵行区都市路2988号",
            "province":"上海市",
            "city":"上海市",
            "area":"闵行区",
            "street_id":"efeed15343e0388c0e0a705d",
            "detail":1,
            "uid":"efeed15343e0388c0e0a705d"
        },
        {
            "name":"中国建设银行(上海莘中路支行)",
            "location":{
                "lat":31.110837,
                "lng":121.383411
            },
            "address":"莘中路97号",
            "province":"上海市",
            "city":"上海市",
            "area":"闵行区",
            "street_id":"161a0ed2b0b5c7515cd4fe00",
            "telephone":"(021)64921010",
            "detail":1,
            "uid":"161a0ed2b0b5c7515cd4fe00"
        },
        {
            "name":"中国建设银行(上海青浦城中支行)",
            "location":{
                "lat":31.15421,
                "lng":121.118574
            },
            "address":"上海市青浦区公园路700号东方商厦F1",
            "province":"上海市",
            "city":"上海市",
            "area":"青浦区",
            "street_id":"0ed20a1570c0a39656bfffb4",
            "telephone":"(021)59734724",
            "detail":1,
            "uid":"0ed20a1570c0a39656bfffb4"
        },
        {
            "name":"中国建设银行(上海环城西路支行)",
            "location":{
                "lat":30.910533,
                "lng":121.452373
            },
            "address":"南桥镇环城西路273-279号",
            "province":"上海市",
            "city":"上海市",
            "area":"奉贤区",
            "street_id":"f60a15edf350bcedbb17e706",
            "telephone":"(021)67194537",
            "detail":1,
            "uid":"f60a15edf350bcedbb17e706"
        },
        {
            "name":"中国建设银行(上海奉浦开发区支行)",
            "location":{
                "lat":30.939848,
                "lng":121.469233
            },
            "address":"奉贤区南桥环城东路707号",
            "province":"上海市",
            "city":"上海市",
            "area":"奉贤区",
            "street_id":"b91e5779215812bc9122e05a",
            "telephone":"(021)67104752",
            "detail":1,
            "uid":"b91e5779215812bc9122e05a"
        },
        {
            "name":"中国建设银行(上海闵行开发区支行)",
            "location":{
                "lat":31.005983,
                "lng":121.388977
            },
            "address":"闵行开发区文井路175号一层",
            "province":"上海市",
            "city":"上海市",
            "area":"闵行区",
            "street_id":"08f1f1f5e74dfccb88db7318",
            "telephone":"(021)64302084",
            "detail":1,
            "uid":"08f1f1f5e74dfccb88db7318"
        }
    ]
}