{
    "status":0,
    "message":"ok",
    "total":400,
    "results":[
        {
            "name":"中国建设银行(上海广灵路支行)",
            "location":{
                "lat":31.292122,
                "lng":121.486409
            },
            "address":"上海市虹口区广灵四路118号",
            "province":"上海市",
            "city":"上海市",
            "area":"虹口区",
            "street_id":"ef773a0fe415723522022027",
            "detail":1,
            "uid":"ef773a0fe415723522022027"
        },
        {
            "name":"中国建设银行(上海崮山路支行)",
            "location":{
                "lat":31.245823,
                "lng":121.566878
            },
            "address":"上海市浦东新区崮山路717号",
            "province":"上海市",
            "city":"上海市",
            "area":"浦东新区",
            "street_id":"81d6a5098dac09416e20b94e",
            "detail":1,
            "uid":"81d6a5098dac09416e20b94e"
        },
        {
            "name":"中国建设银行(上海云山路支行)",
            "location":{
                "lat":31.250498,
                "lng":121.582505
            },
            "address":"上海浦东新区云山路1365号",
            "province":"上海市",
            "city":"上海市",
            "area":"浦东新区",
            "street_id":"14076deeeb5f29f502294f49",
            "detail":1,
            "uid":"14076deeeb5f29f502294f49"
        },
        {
            "name":"中国建设银行(上海江浦路支行)",
            "location":{
                "lat":31.280326,
                "lng":121.524153
            },
            "address":"控江路1659号",
            "province":"上海市",
            "city":"上海市",
            "area":"杨浦区",
            "street_id":"3aae0c15632c71b561180946",
            "telephone":"(021)55802002",
            "detail":1,
            "uid":"3aae0c15632c71b561180946"
        },
        {
            "name":"中国建设银行(上海北外滩支行)",
            "location":{
                "lat":31.2552,
                "lng":121.508547
            },
            "address":"上海市虹口区东大名路666号",
            "province":"上海市",
            "city":"上海市",
            "area":"虹口区",
            "street_id":"33fbfa83268648bf0bf5eb7b",
            "detail":1,
            "uid":"33fbfa83268648bf0bf5eb7b"
        },
        {
            "name":"中国建设银行(上海宝山路支行)",
            "location":{
                "lat":31.258781,
                "lng":121.483293
            },
            "address":"上海市静安区宝山路218号",
            "province":"上海市",
            "city":"上海市",
            "area":"静安区",
            "street_id":"868754c0c7e3524a4d776ed3",
            "telephone":"(021)36361137",
            "detail":1,
            "uid":"868754c0c7e3524a4d776ed3"
        },
        {
            "name":"中国建设银行(上海南泉路支行)",
            "location":{
                "lat":31.217615,
                "lng":121.528969
            },
            "address":"上海浦东新区南泉路1272号",
            "province":"上海市",
            "city":"上海市",
            "area":"浦东新区",
            "street_id":"3dc9befd4dc4b217bea24049",
            "telephone":"(021)58700276",
            "detail":1,
            "uid":"3dc9befd4dc4b217bea24049"
        },
        {
            "name":"中国建设银行(上海乳山路支行)",
            "location":{
                "lat":31.243121,
                "lng":121.532444
            },
            "address":"上海浦东新区乳山路229号",
            "province":"上海市",
            "city":"上海市",
            "area":"浦东新区",
            "street_id":"083a55fafb5cd778246e9849",
            "telephone":"(021)58209412-12",
            "detail":1,
            "uid":"083a55fafb5cd778246e9849"
        },
        {
            "name":"中国建设银行(上海嘉善路支行)",
            "location":{
                "lat":31.215984,
                "lng":121.465489
            },
            "address":"上海市徐汇区嘉善路170-180号",
            "province":"上海市",
            "city":"上海市",
            "area":"徐汇区",
            "street_id":"c6d70b44722a617d4d5547af",
            "telephone":"(021)54188113",
            "detail":1,
            "uid":"c6d70b44722a617d4d5547af"
        },
        {
            "name":"中国建设银行(上海重庆南路支行)",
            "location":{
                "lat":31.219884,
                "lng":121.477351
            },
            "address":"重庆南路119-223号",
            "province":"上海市",
            "city":"上海市",
            "area":"黄浦区",
            "street_id":"05dd7d5f721d7900ac080f89",
            "telephone":"(021)63856271",
            "detail":1,
            "uid":"05dd7d5f721d7900ac080f89"
        },
        {
            "name":"中国建设银行(上海复兴路支行)",
            "location":{
                "lat":31.224377,
                "lng":121.489475
            },
            "address":"复兴中路1号",
            "province":"上海市",
            "city":"上海市",
            "area":"黄浦区",
            "street_id":"f4a33da9efe5c9083110af8e",
            "telephone":"(021)63900107",
            "detail":1,
            "uid":"f4a33da9efe5c9083110af8e"
        },
        {
            "name":"中国建设银行(上海黄河路支行)",
            "location":{
                "lat":31.244849,
                "lng":121.474717
            },
            "address":"新闸路225号",
            "province":"上海市",
            "city":"上海市",
            "area":"黄浦区",
            "street_id":"9f97b1c544ae8e07b64f545e",
            "telephone":"(021)63587232",
            "detail":1,
            "uid":"9f97b1c544ae8e07b64f545e"
        },
        {
            "name":"中国建设银行(上海长乐路支行)",
            "location":{
                "lat":31.227387,
                "lng":121.47019
            },
            "address":"瑞金一路139号",
            "province":"上海市",
            "city":"上海市",
            "area":"黄浦区",
            "street_id":"c8b5cdefabc99e02120daa8e",
            "telephone":"(021)63846750",
            "detail":1,
            "uid":"c8b5cdefabc99e02120daa8e"
        },
        {
            "name":"中国建设银行(上海陕西南路支行)",
            "location":{
                "lat":31.209895,
                "lng":121.46987
            },
            "address":"上海市黄浦区肇嘉浜路178号",
            "province":"上海市",
            "city":"上海市",
            "area":"黄浦区",
            "street_id":"9ee7cc78979c520e16c90559",
            "telephone":"(021)64736965",
            "detail":1,
            "uid":"9ee7cc78979c520e16c90559"
        },
        {
            "name":"中国建设银行(上海共和新路支行)",
            "location":{
                "lat":31.274178,
                "lng":121.464649
            },
            "address":"上海市静安区共和新路1545号",
            "province":"上海市",
            "city":"上海市",
            "area":"静安区",
            "street_id":"e96b4420b3b5735882288aed",
            "telephone":"(021)56702691",
            "detail":1,
            "uid":"e96b4420b3b5735882288aed"
        },
        {
            "name":"中国建设银行(上海曹安路支行)",
            "location":{
                "lat":31.254275,
                "lng":121.403316
            },
            "address":"北石路368号",
            "province":"上海市",
            "city":"上海市",
            "area":"普陀区",
            "street_id":"cc788fde3b28eb8b88fc06fc",
            "telephone":"(021)52501593",
            "detail":1,
            "uid":"cc788fde3b28eb8b88fc06fc"
        },
        {
            "name":"中国建设银行(上海金汤路支行)",
            "location":{
                "lat":31.256708,
                "lng":121.390421
            },
            "address":"金汤路166号",
            "province":"上海市",
            "city":"上海市",
            "area":"普陀区",
            "street_id":"a7c56ee094cd06b2a3acc4f7",
            "telephone":"(021)52794835",
            "detail":1,
            "uid":"a7c56ee094cd06b2a3acc4f7"
        },
        {
            "name":"中国建设银行(上海广元路支行)",
            "location":{
                "lat":31.20415,
                "lng":121.442389
            },
            "address":"上海市徐汇区广元西路43号",
            "province":"上海市",
            "city":"上海市",
            "area":"徐汇区",
            "street_id":"eb36750356ebe21a00ec01c6",
            "telephone":"(021)62821655",
            "detail":1,
            "uid":"eb36750356ebe21a00ec01c6"
        },
        {
            "name":"中国建设银行(上海吴兴路支行)",
            "location":{
                "lat":31.206173,
                "lng":121.456909
            },
            "address":"上海市肇嘉浜路608号",
            "province":"上海市",
            "city":"上海市",
            "area":"徐汇区",
            "street_id":"50f7d146da39cdc572210bc6",
            "telephone":"(021)64372557",
            "detail":1,
            "uid":"50f7d146da39cdc572210bc6"
        },
        {
            "name":"中国建设银行(上海常熟路支行)",
            "location":{
                "lat":31.221989,
                "lng":121.453097
            },
            "address":"上海市徐汇区长乐路989号一夹层",
            "province":"上海市",
            "city":"上海市",
            "area":"徐汇区",
            "street_id":"e3a7fd13982c1f5328b97cc6",
            "telephone":"(021)54075740",
            "detail":1,
            "uid":"e3a7fd13982c1f5328b97cc6"
        }
    ]
}