{
    "status":0,
    "message":"ok",
    "total":400,
    "results":[
        {
            "name":"中国农业银行(上海外高桥保税区支行)",
            "location":{
                "lat":31.356503,
                "lng":121.593964
            },
            "address":"上海市浦东新区基隆路6号外高桥大厦",
            "province":"上海市",
            "city":"上海市",
            "area":"浦东新区",
            "street_id":"3810c8794a7ce88a9c09f767",
            "telephone":"(021)58690860",
            "detail":1,
            "uid":"3810c8794a7ce88a9c09f767"
        },
        {
            "name":"中国农业银行(上海外高桥高桥支行)",
            "location":{
                "lat":31.348775,
                "lng":121.581495
            },
            "address":"上海市浦东新区高桥镇张杨北路5479号",
            "province":"上海市",
            "city":"上海市",
            "area":"浦东新区",
            "street_id":"108b1ceaa6d439ad3586f467",
            "detail":1,
            "uid":"108b1ceaa6d439ad3586f467"
        },
        {
            "name":"中国农业银行(上海康桥开发区支行)",
            "location":{
                "lat":31.153961,
                "lng":121.569459
            },
            "address":"上海市南汇区康桥路963至965号",
            "province":"上海市",
            "city":"上海市",
            "area":"浦东新区",
            "street_id":"d6c5d9913530bfe931169bbe",
            "telephone":"(021)58120179",
            "detail":1,
            "uid":"d6c5d9913530bfe931169bbe"
        },
        {
            "name":"中国农业银行(上海徐汇虹桥路支行)",
            "location":{
                "lat":31.200436,
                "lng":121.43263
            },
            "address":"上海市徐汇区虹桥路640号",
            "province":"上海市",
            "city":"上海市",
            "area":"徐汇区",
            "street_id":"79cceb36d8a6fb881e58003e",
            "telephone":"(021)64473542",
            "detail":1,
            "uid":"79cceb36d8a6fb881e58003e"
        },
        {
            "name":"中国农业银行(上海西藏南路分理处)",
            "location":{
                "lat":31.217064,
                "lng":121.491083
            },
            "address":"上海市黄浦区陆家浜路1296号",
            "province":"上海市",
            "city":"上海市",
            "area":"黄浦区",
            "street_id":"d47dff4c7b17d36b220220ac",
            "detail":1,
            "uid":"d47dff4c7b17d36b220220ac"
        },
        {
            "name":"中国农业银行(上海锦绣华城分理处)",
            "location":{
                "lat":31.18598,
                "lng":121.546517
            },
            "address":"上海市成山路2187号",
            "province":"上海市",
            "city":"上海市",
            "area":"浦东新区",
            "street_id":"1cea15a94759fcc707fef55a",
            "telephone":"(021)68363781",
            "detail":1,
            "uid":"1cea15a94759fcc707fef55a"
        },
        {
            "name":"中国农业银行(上海市分行出国留学金融服务中心)",
            "location":{
                "lat":31.306621,
                "lng":121.523321
            },
            "address":"上海市杨浦区翔殷路1128号",
            "province":"上海市",
            "city":"上海市",
            "area":"杨浦区",
            "street_id":"9c55abb1dc3c0502100daa82",
            "detail":1,
            "uid":"9c55abb1dc3c0502100daa82"
        },
        {
            "name":"中国农业银行(上海孙桥现代农业开发区支行)",
            "location":{
                "lat":31.191518,
                "lng":121.637377
            },
            "address":"上海市浦东新区孙桥路11号",
            "province":"上海市",
            "city":"上海市",
            "area":"浦东新区",
            "street_id":"c21db9e5badd938200ff2d7f",
            "telephone":"(021)58575468",
            "detail":1,
            "uid":"c21db9e5badd938200ff2d7f"
        },
        {
            "name":"中国农业银行(上海虹桥临空经济园区支行)",
            "location":{
                "lat":31.229991,
                "lng":121.361533
            },
            "address":"上海市长宁区北翟路1178号",
            "province":"上海市",
            "city":"上海市",
            "area":"长宁区",
            "street_id":"b292b3aa3081f12bbe4842c3",
            "telephone":"(021)62387515",
            "detail":1,
            "uid":"b292b3aa3081f12bbe4842c3"
        },
        {
            "name":"中国农业银行(长兴支行)",
            "location":{
                "lat":31.396158,
                "lng":121.698751
            },
            "address":"上海市崇明区凤滨路31号",
            "province":"上海市",
            "city":"上海市",
            "area":"崇明区",
            "street_id":"0932bc616ec0ea806ca3cc0c",
            "telephone":"95599",
            "detail":1,
            "uid":"0932bc616ec0ea806ca3cc0c"
        },
        {
            "name":"中国农业银行(梅陇支行)",
            "location":{
                "lat":31.115992,
                "lng":121.420944
            },
            "address":"上海市闵行区春申路2525号",
            "province":"上海市",
            "city":"上海市",
            "area":"闵行区",
            "street_id":"8f8b53410ccab5df7f29bd6b",
            "telephone":"(021)64102740",
            "detail":1,
            "uid":"8f8b53410ccab5df7f29bd6b"
        },
        {
            "name":"中国农业银行(新桥支行)",
            "location":{
                "lat":31.06984,
                "lng":121.32028
            },
            "address":"上海市松江区新镇街915号",
            "province":"上海市",
            "city":"上海市",
            "area":"松江区",
            "street_id":"5c56edd623e30d5ba0d230e2",
            "telephone":"(021)57641405,(021)57642254",
            "detail":1,
            "uid":"5c56edd623e30d5ba0d230e2"
        },
        {
            "name":"中国农业银行(青村支行)",
            "location":{
                "lat":30.930071,
                "lng":121.588544
            },
            "address":"上海市奉贤区青村镇南奉公路2790号",
            "province":"上海市",
            "city":"上海市",
            "area":"奉贤区",
            "street_id":"6835e3a7c1b9a24fe311033a",
            "telephone":"(021)57561079",
            "detail":1,
            "uid":"6835e3a7c1b9a24fe311033a"
        },
        {
            "name":"中国农业银行(张堰支行)",
            "location":{
                "lat":30.81288,
                "lng":121.294142
            },
            "address":"金山区张堰镇金张公路200号",
            "province":"上海市",
            "city":"上海市",
            "area":"金山区",
            "street_id":"3a0fbba8dde46e409ee32177",
            "telephone":"(021)57213353,(021)57213090",
            "detail":1,
            "uid":"3a0fbba8dde46e409ee32177"
        },
        {
            "name":"中国农业银行(金卫支行)",
            "location":{
                "lat":30.736606,
                "lng":121.325617
            },
            "address":"上海市金山区北泰路208号",
            "province":"上海市",
            "city":"上海市",
            "area":"金山区",
            "street_id":"65e604e89a9ee142ed74f8f2",
            "telephone":"(021)57260588",
            "detail":1,
            "uid":"65e604e89a9ee142ed74f8f2"
        },
        {
            "name":"中国农业银行(吕巷支行)",
            "location":{
                "lat":30.834208,
                "lng":121.187577
            },
            "address":"上海市金山区吕巷镇金张公路4739号",
            "province":"上海市",
            "city":"上海市",
            "area":"金山区",
            "street_id":"ef773a0fdb1c73352202202c",
            "telephone":"(021)57371295",
            "detail":1,
            "uid":"ef773a0fdb1c73352202202c"
        },
        {
            "name":"中国农业银行(竖河支行)",
            "location":{
                "lat":31.570348,
                "lng":121.587168
            },
            "address":"上海市崇明区团城公路1998号临",
            "province":"上海市",
            "city":"上海市",
            "area":"崇明区",
            "street_id":"23116913ba6fa3fc734b8754",
            "telephone":"(021)59481960",
            "detail":1,
            "uid":"23116913ba6fa3fc734b8754"
        },
        {
            "name":"中国农业银行(庙行分行)",
            "location":{
                "lat":31.338959,
                "lng":121.446367
            },
            "address":"上海市宝山区纪蕴路50号",
            "province":"上海市",
            "city":"上海市",
            "area":"宝山区",
            "street_id":"930a05c0614188e5725e8013",
            "telephone":"(021)33873754",
            "detail":1,
            "uid":"930a05c0614188e5725e8013"
        },
        {
            "name":"中国农业银行(安亭支行)",
            "location":{
                "lat":31.300772,
                "lng":121.169497
            },
            "address":"上海市嘉定区昌吉路185号",
            "province":"上海市",
            "city":"上海市",
            "area":"嘉定区",
            "street_id":"060f5e5370a747aa081cc722",
            "telephone":"(021)59570170",
            "detail":1,
            "uid":"060f5e5370a747aa081cc722"
        },
        {
            "name":"中国农业银行(邬桥支行)",
            "location":{
                "lat":30.963674,
                "lng":121.408524
            },
            "address":"上海市奉贤区邬桥大叶公路2621号",
            "province":"上海市",
            "city":"上海市",
            "area":"奉贤区",
            "street_id":"cdef4edf7b19ef4f28d7ab3e",
            "telephone":"(021)57401163",
            "detail":1,
            "uid":"cdef4edf7b19ef4f28d7ab3e"
        }
    ]
}