{
    "status":0,
    "message":"ok",
    "total":400,
    "results":[
        {
            "name":"中国农业银行(桂林路支行)",
            "location":{
                "lat":31.176266,
                "lng":121.424074
            },
            "address":"上海市徐汇区桂林路400号",
            "province":"上海市",
            "city":"上海市",
            "area":"徐汇区",
            "street_id":"befdb2926904669f8715412c",
            "telephone":"(021)54489221,(021)54485653",
            "detail":1,
            "uid":"befdb2926904669f8715412c"
        },
        {
            "name":"中国农业银行(上海漕溪支行)",
            "location":{
                "lat":31.174558,
                "lng":121.441878
            },
            "address":"上海市龙漕路2号",
            "province":"上海市",
            "city":"上海市",
            "area":"徐汇区",
            "street_id":"9498c2383c7b3e285a3ac8f9",
            "telephone":"(021)64363614",
            "detail":1,
            "uid":"dc0f0adcaf3ccc20f82213c6"
        },
        {
            "name":"中国农业银行(上海程桥支行)",
            "location":{
                "lat":31.196384,
                "lng":121.378407
            },
            "address":"上海市虹桥路2301号",
            "province":"上海市",
            "city":"上海市",
            "area":"长宁区",
            "street_id":"b1c556e89e324a0db4265518",
            "telephone":"(021)62429664",
            "detail":1,
            "uid":"b1c556e89e324a0db4265518"
        },
        {
            "name":"中国农业银行(上海南站支行)",
            "location":{
                "lat":31.154433,
                "lng":121.436832
            },
            "address":"上海市徐汇区石龙路969号",
            "province":"上海市",
            "city":"上海市",
            "area":"徐汇区",
            "street_id":"bd5046e87c135c3cd72ce2d2",
            "telephone":"(021)54082669",
            "detail":1,
            "uid":"bd5046e87c135c3cd72ce2d2"
        },
        {
            "name":"中国农业银行(上海港城支行)",
            "location":{
                "lat":30.905643,
                "lng":121.932342
            },
            "address":"上海市浦东新区南汇新城环湖西一路99号16幢",
            "province":"上海市",
            "city":"上海市",
            "area":"浦东新区",
            "street_id":"0d4f8e6d0b41d9a05cd4fee9",
            "telephone":"(021)38072022",
            "detail":1,
            "uid":"08fc93dfd738c2929b68b4e7"
        },
        {
            "name":"中国农业银行(上海合庆支行)",
            "location":{
                "lat":31.244208,
                "lng":121.724853
            },
            "address":"上海市浦东合庆镇前哨路55号",
            "province":"上海市",
            "city":"上海市",
            "area":"浦东新区",
            "street_id":"923ffd001b3b49b6d92f287f",
            "telephone":"(021)58979713",
            "detail":1,
            "uid":"923ffd001b3b49b6d92f287f"
        },
        {
            "name":"中国农业银行(上海机场支行)",
            "location":{
                "lat":31.181702,
                "lng":121.756244
            },
            "address":"上海市浦东新区祝桥镇晨阳路75号",
            "province":"上海市",
            "city":"上海市",
            "area":"浦东新区",
            "street_id":"4ce10ce63148c3a0441a327f",
            "telephone":"(021)58931164",
            "detail":1,
            "uid":"4ce10ce63148c3a0441a327f"
        },
        {
            "name":"中国农业银行(上海施湾支行)",
            "location":{
                "lat":31.155143,
                "lng":121.765292
            },
            "address":"上海市浦东新区川南奉公路3395号卫生院旁边",
            "province":"上海市",
            "city":"上海市",
            "area":"浦东新区",
            "street_id":"43b7e8895e06806b59f6bea2",
            "telephone":"(021)50530027",
            "detail":1,
            "uid":"43b7e8895e06806b59f6bea2"
        },
        {
            "name":"中国农业银行(上海川沙支行)",
            "location":{
                "lat":31.183049,
                "lng":121.700851
            },
            "address":"上海市浦东新区妙境路1356",
            "province":"上海市",
            "city":"上海市",
            "area":"浦东新区",
            "street_id":"e08c4d0be68d90dec33644c7",
            "telephone":"95599",
            "detail":1,
            "uid":"e08c4d0be68d90dec33644c7"
        },
        {
            "name":"中国农业银行(上海老港支行)",
            "location":{
                "lat":31.045845,
                "lng":121.846958
            },
            "address":"上海市南汇区老港镇鑫盛路5号",
            "province":"上海市",
            "city":"上海市",
            "area":"浦东新区",
            "street_id":"c879fa014614604bc809f0bd",
            "telephone":"(021)58055666",
            "detail":1,
            "uid":"c879fa014614604bc809f0bd"
        },
        {
            "name":"中国农业银行(上海三灶支行)",
            "location":{
                "lat":31.075377,
                "lng":121.720573
            },
            "address":"上海市浦东新区宣桥镇下盐路3929号",
            "province":"上海市",
            "city":"上海市",
            "area":"浦东新区",
            "street_id":"75d0881ac6c7014c3b04b180",
            "telephone":"(021)58037162",
            "detail":1,
            "uid":"75d0881ac6c7014c3b04b180"
        },
        {
            "name":"中国农业银行(上海坦直支行)",
            "location":{
                "lat":31.07904,
                "lng":121.650262
            },
            "address":"上海市浦东新区新场工业区古恩路50号",
            "province":"上海市",
            "city":"上海市",
            "area":"浦东新区",
            "street_id":"4004467f951167fa100daa0b",
            "telephone":"(021)68151444",
            "detail":1,
            "uid":"4004467f951167fa100daa0b"
        },
        {
            "name":"中国农业银行(外高桥支行)",
            "location":{
                "lat":31.319892,
                "lng":121.612229
            },
            "address":"浦东新区加枫路18号(加枫路台中南路)",
            "province":"上海市",
            "city":"上海市",
            "area":"浦东新区",
            "street_id":"61722548f468945ef50e77ea",
            "telephone":"(021)50644389",
            "detail":1,
            "uid":"61722548f468945ef50e77ea"
        },
        {
            "name":"中国农业银行(上海东沟支行)",
            "location":{
                "lat":31.297316,
                "lng":121.593152
            },
            "address":"上海市浦东新区东靖路862号",
            "province":"上海市",
            "city":"上海市",
            "area":"浦东新区",
            "street_id":"bd9f4f30e8d1b5ecc72ba12a",
            "telephone":"(021)68461555",
            "detail":1,
            "uid":"bd9f4f30e8d1b5ecc72ba12a"
        },
        {
            "name":"中国农业银行(上海中原支行)",
            "location":{
                "lat":31.334225,
                "lng":121.54709
            },
            "address":"上海市殷行路285号",
            "province":"上海市",
            "city":"上海市",
            "area":"杨浦区",
            "street_id":"07f3c8b52a3f4e626240a9d0",
            "telephone":"(021)65050430",
            "detail":1,
            "uid":"07f3c8b52a3f4e626240a9d0"
        },
        {
            "name":"中国农业银行(上海水电支行)",
            "location":{
                "lat":31.289748,
                "lng":121.480504
            },
            "address":"上海市水电路618号",
            "province":"上海市",
            "city":"上海市",
            "area":"虹口区",
            "street_id":"c402d96ce8d4202d2bd7abb6",
            "telephone":"(021)65293262",
            "detail":1,
            "uid":"c402d96ce8d4202d2bd7abb6"
        },
        {
            "name":"中国农业银行(上海江湾支行)",
            "location":{
                "lat":31.307796,
                "lng":121.491679
            },
            "address":"上海市虹口区万安路298号",
            "province":"上海市",
            "city":"上海市",
            "area":"虹口区",
            "street_id":"318889fb8446ce65b75f1ebe",
            "telephone":"(021)65446405",
            "detail":1,
            "uid":"318889fb8446ce65b75f1ebe"
        },
        {
            "name":"中国农业银行(上海曲阳支行)",
            "location":{
                "lat":31.274581,
                "lng":121.500851
            },
            "address":"上海市虹口区曲阳路2号",
            "province":"上海市",
            "city":"上海市",
            "area":"虹口区",
            "street_id":"480b24d0907df08c9cec2b6a",
            "telephone":"(021)55158960",
            "detail":1,
            "uid":"480b24d0907df08c9cec2b6a"
        },
        {
            "name":"中国农业银行(上海共和支行)",
            "location":{
                "lat":31.276241,
                "lng":121.467719
            },
            "address":"上海市静安区洛川东路339-349号",
            "province":"上海市",
            "city":"上海市",
            "area":"静安区",
            "street_id":"adf11ec78d1526929f09f707",
            "telephone":"(021)56385585",
            "detail":1,
            "uid":"adf11ec78d1526929f09f707"
        },
        {
            "name":"中国农业银行(秀沿路支行)",
            "location":{
                "lat":31.141279,
                "lng":121.578119
            },
            "address":"上海市浦东新区秀沿路875号中邦城市商业休闲街1层",
            "province":"上海市",
            "city":"上海市",
            "area":"浦东新区",
            "street_id":"a0d8e8f2b3ceb773455726f0",
            "telephone":"(021)38022116",
            "detail":1,
            "uid":"a0d8e8f2b3ceb773455726f0"
        }
    ]
}