{
    "status":0,
    "message":"ok",
    "total":400,
    "results":[
        {
            "name":"中国农业银行",
            "location":{
                "lat":31.122041,
                "lng":121.464926
            },
            "address":"华济路49-55号",
            "province":"上海市",
            "city":"上海市",
            "area":"徐汇区",
            "street_id":"b9193983cd0862a81fe9992f",
            "telephone":"(021)54386515",
            "detail":1,
            "uid":"b9193983cd0862a81fe9992f"
        },
        {
            "name":"中国农业银行",
            "location":{
                "lat":31.331089,
                "lng":121.441919
            },
            "address":"上海市宝山区长临路913号北斗星商业广场F1",
            "province":"上海市",
            "city":"上海市",
            "area":"宝山区",
            "street_id":"bda96060f27e45ca88b98854",
            "detail":1,
            "uid":"bda96060f27e45ca88b98854"
        },
        {
            "name":"中国农业银行",
            "location":{
                "lat":31.164592,
                "lng":121.328888
            },
            "address":"上海市松江区涞亭北路705弄1号房1073号",
            "province":"上海市",
            "city":"上海市",
            "area":"松江区",
            "street_id":"1c658f4c1204004d5e0d02be",
            "telephone":"95599",
            "detail":1,
            "uid":"1c658f4c1204004d5e0d02be"
        },
        {
            "name":"中国农业银行(上海卢湾支行)",
            "location":{
                "lat":31.21142,
                "lng":121.477612
            },
            "address":"徐家汇路599-601号",
            "province":"上海市",
            "city":"上海市",
            "area":"黄浦区",
            "street_id":"d3a15150d4ee03450f0a70a3",
            "telephone":"(021)53961663",
            "detail":1,
            "uid":"d3a15150d4ee03450f0a70a3"
        },
        {
            "name":"中国农业银行(宣桥支行)",
            "location":{
                "lat":31.04205,
                "lng":121.701316
            },
            "address":"上海市浦东新区沪南公路8898号",
            "province":"上海市",
            "city":"上海市",
            "area":"浦东新区",
            "street_id":"93df0dc32a0d672a892fb580",
            "telephone":"(021)58180128,(021)58181280",
            "detail":1,
            "uid":"93df0dc32a0d672a892fb580"
        },
        {
            "name":"中国农业银行(通州支行)",
            "location":{
                "lat":31.264115,
                "lng":121.501836
            },
            "address":"上海市虹口区通州路300号",
            "province":"上海市",
            "city":"上海市",
            "area":"虹口区",
            "street_id":"09185c569d6b4d5cf1193727",
            "telephone":"(021)33775667",
            "detail":1,
            "uid":"09185c569d6b4d5cf1193727"
        },
        {
            "name":"中国农业银行(塘桥支行)",
            "location":{
                "lat":31.219724,
                "lng":121.526719
            },
            "address":"峨山路679弄1号",
            "province":"上海市",
            "city":"上海市",
            "area":"浦东新区",
            "street_id":"7b0aabcbb11df7bd82a12e1f",
            "telephone":"(021)50187161",
            "detail":1,
            "uid":"7b0aabcbb11df7bd82a12e1f"
        },
        {
            "name":"中国农业银行(上海分部)",
            "location":{
                "lat":31.236856,
                "lng":121.488866
            },
            "address":"黄浦区延安东路518号",
            "province":"上海市",
            "city":"上海市",
            "area":"黄浦区",
            "street_id":"7a4a470f2442e917ee74f85e",
            "detail":1,
            "uid":"af1ae56bab219d6c4207c1d9"
        },
        {
            "name":"中国农业银行(普陀支行)",
            "location":{
                "lat":31.245887,
                "lng":121.420295
            },
            "address":"曹杨路697号恒进商务楼1层",
            "province":"上海市",
            "city":"上海市",
            "area":"普陀区",
            "street_id":"8936682717b668e9b54f546b",
            "telephone":"95599",
            "detail":1,
            "uid":"8936682717b668e9b54f546b"
        },
        {
            "name":"中国农业银行(长桥支行)",
            "location":{
                "lat":31.142031,
                "lng":121.447682
            },
            "address":"上海市罗香路35号",
            "province":"上海市",
            "city":"上海市",
            "area":"徐汇区",
            "street_id":"6deee3084ec35d1729fc4810",
            "telephone":"(021)54291762",
            "detail":1,
            "uid":"6deee3084ec35d1729fc4810"
        },
        {
            "name":"中国农业银行(曹路支行)",
            "location":{
                "lat":31.282536,
                "lng":121.675211
            },
            "address":"上海市浦东新区川沙路508号(金钟园对面)",
            "province":"上海市",
            "city":"上海市",
            "area":"浦东新区",
            "street_id":"2ad32cc35190f78e9d95de68",
            "telephone":"(021)58631231",
            "detail":1,
            "uid":"2ad32cc35190f78e9d95de68"
        },
        {
            "name":"中国农业银行(翔殷支行)",
            "location":{
                "lat":31.306741,
                "lng":121.523363
            },
            "address":"上海市杨浦区翔殷路1128号",
            "province":"上海市",
            "city":"上海市",
            "area":"杨浦区",
            "street_id":"e7c78a7ee99bf74f30169bc4",
            "telephone":"(021)65656509",
            "detail":1,
            "uid":"e7c78a7ee99bf74f30169bc4"
        },
        {
            "name":"中国农业银行(洋泾支行)",
            "location":{
                "lat":31.248038,
                "lng":121.565304
            },
            "address":"上海市浦东新区张杨路2580号",
            "province":"上海市",
            "city":"上海市",
            "area":"浦东新区",
            "street_id":"d24e48eb1b107ab6afee7a5b",
            "telephone":"(021)58334255",
            "detail":1,
            "uid":"d24e48eb1b107ab6afee7a5b"
        },
        {
            "name":"中国农业银行(溧阳支行)",
            "location":{
                "lat":31.266617,
                "lng":121.49551
            },
            "address":"上海市虹口区四平路1088号临",
            "province":"上海市",
            "city":"上海市",
            "area":"虹口区",
            "street_id":"0ce65c2daea0b8582d473327",
            "telephone":"(021)56668573,(021)56668577,(021)56669381",
            "detail":1,
            "uid":"0ce65c2daea0b8582d473327"
        },
        {
            "name":"中国农业银行",
            "location":{
                "lat":31.165952,
                "lng":121.099699
            },
            "address":"盈港路1755号附近",
            "province":"上海市",
            "city":"上海市",
            "area":"青浦区",
            "street_id":"2d5fe7e36ad0828b38e4a66f",
            "telephone":"95599",
            "detail":1,
            "uid":"2d5fe7e36ad0828b38e4a66f"
        },
        {
            "name":"中国农业银行",
            "location":{
                "lat":31.115402,
                "lng":121.062181
            },
            "address":"上海市青浦区美周弄36号附近",
            "province":"上海市",
            "city":"上海市",
            "area":"青浦区",
            "detail":1,
            "uid":"de0460c0c56ad461a1d23021"
        },
        {
            "name":"中国农业银行",
            "location":{
                "lat":31.389098,
                "lng":121.45015
            },
            "address":"上海市宝山区松兰路1062附近",
            "province":"上海市",
            "city":"上海市",
            "area":"宝山区",
            "detail":1,
            "uid":"9335f4b4d25fafce2d473387"
        },
        {
            "name":"中国农业银行(数据中心)",
            "location":{
                "lat":31.310436,
                "lng":121.617389
            },
            "address":"上海市浦东新区澳尼路88号",
            "province":"上海市",
            "city":"上海市",
            "area":"浦东新区",
            "street_id":"af0415326e55c49df4eafc68",
            "telephone":"95599",
            "detail":1,
            "uid":"af0415326e55c49df4eafc68"
        },
        {
            "name":"中国农业银行(曹杨路)",
            "location":{
                "lat":31.265899,
                "lng":121.41066
            },
            "address":"上海市普陀区曹杨路2211号副楼3楼(近三源路)",
            "province":"上海市",
            "city":"上海市",
            "area":"普陀区",
            "detail":1,
            "uid":"f6415c59b1e584d084154138"
        },
        {
            "name":"中国农业银行(上海唐镇支行)",
            "location":{
                "lat":31.216914,
                "lng":121.661895
            },
            "address":"上海市浦东新区唐陆公路3201号",
            "province":"上海市",
            "city":"上海市",
            "area":"浦东新区",
            "street_id":"dd3485a44129d3850ab93a68",
            "telephone":"(021)58960940",
            "detail":1,
            "uid":"dd3485a44129d3850ab93a68"
        }
    ]
}