{
    "status":0,
    "message":"ok",
    "total":400,
    "results":[
        {
            "name":"中国建设银行(上海愚园路支行)",
            "location":{
                "lat":31.222124,
                "lng":121.428773
            },
            "address":"定西路1285号",
            "province":"上海市",
            "city":"上海市",
            "area":"长宁区",
            "street_id":"c8e8f633f7feb16dab0dd80c",
            "telephone":"(021)62114305",
            "detail":1,
            "uid":"c8e8f633f7feb16dab0dd80c"
        },
        {
            "name":"中国建设银行(上海国权路支行)",
            "location":{
                "lat":31.295856,
                "lng":121.52903
            },
            "address":"国权东路150号",
            "province":"上海市",
            "city":"上海市",
            "area":"杨浦区",
            "street_id":"be1ea5efa2dfb7be14948ed0",
            "telephone":"(021)55580238",
            "detail":1,
            "uid":"be1ea5efa2dfb7be14948ed0"
        },
        {
            "name":"中国建设银行(上海延吉路支行)",
            "location":{
                "lat":31.289697,
                "lng":121.537178
            },
            "address":"延吉中路131号",
            "province":"上海市",
            "city":"上海市",
            "area":"杨浦区",
            "street_id":"e116be541e39e27ac91b95d0",
            "telephone":"(021)65435938",
            "detail":1,
            "uid":"e116be541e39e27ac91b95d0"
        },
        {
            "name":"中国建设银行(上海国定路支行)",
            "location":{
                "lat":31.30308,
                "lng":121.515543
            },
            "address":"国定路369号",
            "province":"上海市",
            "city":"上海市",
            "area":"杨浦区",
            "street_id":"6c611e8a63efac6f32870ad6",
            "telephone":"(021)65650121",
            "detail":1,
            "uid":"6c611e8a63efac6f32870ad6"
        },
        {
            "name":"中国建设银行(上海利津路支行)",
            "location":{
                "lat":31.287509,
                "lng":121.600098
            },
            "address":"上海浦东新区利津路1265号",
            "province":"上海市",
            "city":"上海市",
            "area":"浦东新区",
            "street_id":"680fb7032e19459d8bb98872",
            "telephone":"(021)33829324",
            "detail":1,
            "uid":"680fb7032e19459d8bb98872"
        },
        {
            "name":"中国建设银行(上海定海桥支行)",
            "location":{
                "lat":31.283496,
                "lng":121.559875
            },
            "address":"爱国路8号",
            "province":"上海市",
            "city":"上海市",
            "area":"杨浦区",
            "street_id":"b703e96b83f076fb8f1a89d0",
            "telephone":"(021)65800310",
            "detail":1,
            "uid":"b703e96b83f076fb8f1a89d0"
        },
        {
            "name":"中国建设银行(上海高科路支行)",
            "location":{
                "lat":31.211447,
                "lng":121.619738
            },
            "address":"上海市浦东新区川北公路3042号",
            "province":"上海市",
            "city":"上海市",
            "area":"浦东新区",
            "street_id":"a5097bfafdaa9262f03cba4e",
            "telephone":"(021)58555690",
            "detail":1,
            "uid":"a5097bfafdaa9262f03cba4e"
        },
        {
            "name":"中国建设银行(上海黄兴路支行)",
            "location":{
                "lat":31.287009,
                "lng":121.530967
            },
            "address":"延吉中路569号",
            "province":"上海市",
            "city":"上海市",
            "area":"杨浦区",
            "street_id":"25ec69fc820e917cc26c14d3",
            "telephone":"(021)65198349",
            "detail":1,
            "uid":"25ec69fc820e917cc26c14d3"
        },
        {
            "name":"中国建设银行(上海临平路支行)",
            "location":{
                "lat":31.268582,
                "lng":121.500017
            },
            "address":"上海市虹口区临平北路12号",
            "province":"上海市",
            "city":"上海市",
            "area":"虹口区",
            "street_id":"480b24d031b551f09cec2b27",
            "telephone":"(021)55158820,(021)55158813,(021)55158817",
            "detail":1,
            "uid":"480b24d031b551f09cec2b27"
        },
        {
            "name":"中国建设银行(上海同心路支行)",
            "location":{
                "lat":31.271926,
                "lng":121.486293
            },
            "address":"上海市虹口区同心路3号",
            "province":"上海市",
            "city":"上海市",
            "area":"虹口区",
            "street_id":"923ffd001be349b6d92f2827",
            "telephone":"(021)65871728,(021)65871718",
            "detail":1,
            "uid":"923ffd001be349b6d92f2827"
        },
        {
            "name":"中国建设银行(上海东建路支行)",
            "location":{
                "lat":31.206542,
                "lng":121.542822
            },
            "address":"上海市浦东新区东建路483号",
            "province":"上海市",
            "city":"上海市",
            "area":"浦东新区",
            "street_id":"af5f8986630455e3db131813",
            "telephone":"(021)50492316",
            "detail":1,
            "uid":"af5f8986630455e3db131813"
        },
        {
            "name":"中国建设银行(上海张杨路支行)",
            "location":{
                "lat":31.238176,
                "lng":121.537489
            },
            "address":"上海浦东新区张杨路1233号",
            "province":"上海市",
            "city":"上海市",
            "area":"浦东新区",
            "street_id":"3be122e11e506c531ef74d49",
            "telephone":"(021)50810699",
            "detail":1,
            "uid":"3be122e11e506c531ef74d49"
        },
        {
            "name":"中国建设银行(上海东昌路支行)",
            "location":{
                "lat":31.23828,
                "lng":121.519258
            },
            "address":"上海市浦东新区东昌路538号",
            "province":"上海市",
            "city":"上海市",
            "area":"浦东新区",
            "street_id":"93df0dc32a7b672a882fb54e",
            "detail":1,
            "uid":"93df0dc32a7b672a882fb54e"
        },
        {
            "name":"中国建设银行(上海瞿溪路支行)",
            "location":{
                "lat":31.208864,
                "lng":121.495332
            },
            "address":"西藏南路1556号",
            "province":"上海市",
            "city":"上海市",
            "area":"黄浦区",
            "street_id":"c16534058bd1b378ab175a5e",
            "telephone":"(021)53078318",
            "detail":1,
            "uid":"c16534058bd1b378ab175a5e"
        },
        {
            "name":"中国建设银行(上海鲁班路支行)",
            "location":{
                "lat":31.209509,
                "lng":121.484
            },
            "address":"上海市斜土路425号",
            "province":"上海市",
            "city":"上海市",
            "area":"黄浦区",
            "street_id":"cb6b4a9542f6df1241d63e16",
            "detail":1,
            "uid":"c7fb04bd1eb53c14fb0cad8e"
        },
        {
            "name":"中国建设银行(上海新天地支行)",
            "location":{
                "lat":31.222329,
                "lng":121.481712
            },
            "address":"马当路245号160室",
            "province":"上海市",
            "city":"上海市",
            "area":"黄浦区",
            "street_id":"aa2eee836404ccaeede4a5db",
            "telephone":"(021)53028785",
            "detail":1,
            "uid":"aa2eee836404ccaeede4a5db"
        },
        {
            "name":"中国建设银行(上海福州路支行)",
            "location":{
                "lat":31.237744,
                "lng":121.483884
            },
            "address":"福州路725号",
            "province":"上海市",
            "city":"上海市",
            "area":"黄浦区",
            "street_id":"b1c556e89dfc490db426555e",
            "detail":1,
            "uid":"b1c556e89dfc490db426555e"
        },
        {
            "name":"中国建设银行(上海白莲泾支行)",
            "location":{
                "lat":31.185365,
                "lng":121.511912
            },
            "address":"上海浦东新区齐河路306号",
            "province":"上海市",
            "city":"上海市",
            "area":"浦东新区",
            "street_id":"669775d0674c295afd0eb04e",
            "telephone":"(021)58479623",
            "detail":1,
            "uid":"669775d0674c295afd0eb04e"
        },
        {
            "name":"中国建设银行(上海北艾路支行)",
            "location":{
                "lat":31.189326,
                "lng":121.542141
            },
            "address":"上海浦东新区北艾路918号",
            "province":"上海市",
            "city":"上海市",
            "area":"浦东新区",
            "street_id":"a3f21eeeda65673a2eb17eb8",
            "telephone":"(021)68961745",
            "detail":1,
            "uid":"a3f21eeeda65673a2eb17eb8"
        },
        {
            "name":"中国建设银行(中远两湾城支行)",
            "location":{
                "lat":31.258042,
                "lng":121.44965
            },
            "address":"中潭路55号",
            "province":"上海市",
            "city":"上海市",
            "area":"普陀区",
            "street_id":"d5f93c0e21286e5deddfcaf7",
            "telephone":"(021)52950476",
            "detail":1,
            "uid":"d5f93c0e21286e5deddfcaf7"
        }
    ]
}