{
    "status":0,
    "message":"ok",
    "total":400,
    "results":[
        {
            "name":"中国农业银行(上海桃浦支行)",
            "location":{
                "lat":31.277949,
                "lng":121.381826
            },
            "address":"上海市普陀区真南路1228号上海康建商务广场3层",
            "province":"上海市",
            "city":"上海市",
            "area":"普陀区",
            "street_id":"550fd5f9bbe3a778931fc9f7",
            "telephone":"(021)62504610",
            "detail":1,
            "uid":"550fd5f9bbe3a778931fc9f7"
        },
        {
            "name":"中国农业银行(上海江宁支行)",
            "location":{
                "lat":31.240092,
                "lng":121.459169
            },
            "address":"上海市江宁路383号",
            "province":"上海市",
            "city":"上海市",
            "area":"静安区",
            "street_id":"c8e8f633f648b26daa0dd882",
            "telephone":"(021)62552057",
            "detail":1,
            "uid":"c8e8f633f648b26daa0dd882"
        },
        {
            "name":"中国农业银行(上海天山支行)",
            "location":{
                "lat":31.221368,
                "lng":121.391338
            },
            "address":"上海市长宁区天山路310号",
            "province":"上海市",
            "city":"上海市",
            "area":"长宁区",
            "street_id":"f60a15ed6188d290bb17e75b",
            "telephone":"(021)62910491",
            "detail":1,
            "uid":"f60a15ed6188d290bb17e75b"
        },
        {
            "name":"中国农业银行(上海长风支行)",
            "location":{
                "lat":31.2315,
                "lng":121.402223
            },
            "address":"上海市普陀区大渡河路388号上海市国盛中心F1",
            "province":"上海市",
            "city":"上海市",
            "area":"普陀区",
            "street_id":"b656c43f1c8769a14e2fdfb1",
            "telephone":"(021)52820180",
            "detail":1,
            "uid":"b656c43f1c8769a14e2fdfb1"
        },
        {
            "name":"中国农业银行(上海田林支行)",
            "location":{
                "lat":31.178882,
                "lng":121.429597
            },
            "address":"上海市徐汇区",
            "province":"上海市",
            "city":"上海市",
            "area":"徐汇区",
            "street_id":"035ceab52ecd87614c6d4652",
            "telephone":"95599",
            "detail":1,
            "uid":"035ceab52ecd87614c6d4652"
        },
        {
            "name":"中国农业银行(上海龙华支行)",
            "location":{
                "lat":31.181908,
                "lng":121.450231
            },
            "address":"上海市徐汇区龙华西路333号",
            "province":"上海市",
            "city":"上海市",
            "area":"徐汇区",
            "street_id":"25ec69fc8501907cc26c14c6",
            "telephone":"(021)64565421",
            "detail":1,
            "uid":"25ec69fc8501907cc26c14c6"
        },
        {
            "name":"中国农业银行(上海彭镇支行)",
            "location":{
                "lat":30.904303,
                "lng":121.822107
            },
            "address":"上海市浦东新区泥城镇鸿音路2917号",
            "province":"上海市",
            "city":"上海市",
            "area":"浦东新区",
            "street_id":"10cf4d84ee08be6db726555a",
            "telephone":"(021)58240137",
            "detail":1,
            "uid":"10cf4d84ee08be6db726555a"
        },
        {
            "name":"中国农业银行(上海泥城支行)",
            "location":{
                "lat":30.908812,
                "lng":121.833283
            },
            "address":"上海市南汇区泥城镇新城路6号",
            "province":"上海市",
            "city":"上海市",
            "area":"浦东新区",
            "street_id":"616da7d22cf41663095cb3c6",
            "telephone":"(021)58075588",
            "detail":1,
            "uid":"616da7d22cf41663095cb3c6"
        },
        {
            "name":"中国农业银行(蔡路分理处)",
            "location":{
                "lat":31.219609,
                "lng":121.735021
            },
            "address":"上海市浦东新区塘东街3号",
            "province":"上海市",
            "city":"上海市",
            "area":"浦东新区",
            "street_id":"49a02a7ae64bfa412b201a38",
            "telephone":"(021)68902116",
            "detail":1,
            "uid":"49a02a7ae64bfa412b201a38"
        },
        {
            "name":"中国农业银行(上海龚路支行)",
            "location":{
                "lat":31.266577,
                "lng":121.693378
            },
            "address":"上海市浦东新区龚华路413至417号",
            "province":"上海市",
            "city":"上海市",
            "area":"浦东新区",
            "street_id":"d7fd2ad3b6bbc9550bccdd68",
            "telephone":"(021)38923370",
            "detail":1,
            "uid":"d7fd2ad3b6bbc9550bccdd68"
        },
        {
            "name":"中国农业银行(上海六灶支行)",
            "location":{
                "lat":31.122266,
                "lng":121.70392
            },
            "address":"上海市南汇区六灶镇周祝公路2336号",
            "province":"上海市",
            "city":"上海市",
            "area":"浦东新区",
            "street_id":"b7021bf82f0cf5fbf5e73bbb",
            "telephone":"(021)58163181",
            "detail":1,
            "uid":"b7021bf82f0cf5fbf5e73bbb"
        },
        {
            "name":"中国农业银行(上海大团支行)",
            "location":{
                "lat":30.97742,
                "lng":121.750755
            },
            "address":"上海市浦东新区大团镇永春东路36号",
            "province":"上海市",
            "city":"上海市",
            "area":"浦东新区",
            "street_id":"5508504d030eeecac6f02587",
            "telephone":"(021)58082543",
            "detail":1,
            "uid":"5508504d030eeecac6f02587"
        },
        {
            "name":"中国农业银行(上海高东支行)",
            "location":{
                "lat":31.336479,
                "lng":121.626169
            },
            "address":"上海市浦东新区光明路415弄6号",
            "province":"上海市",
            "city":"上海市",
            "area":"浦东新区",
            "street_id":"850815e1252c249a43e19272",
            "telephone":"(021)58480850",
            "detail":1,
            "uid":"850815e1252c249a43e19272"
        },
        {
            "name":"中国农业银行(上海高行支行)",
            "location":{
                "lat":31.298699,
                "lng":121.614591
            },
            "address":"上海市浦东新区东靖路1831号",
            "province":"上海市",
            "city":"上海市",
            "area":"浦东新区",
            "street_id":"cde9e2c7e49684b5e81e9772",
            "telephone":"(021)68978614",
            "detail":1,
            "uid":"cde9e2c7e49684b5e81e9772"
        },
        {
            "name":"中国农业银行(上海东陆支行)",
            "location":{
                "lat":31.280086,
                "lng":121.606585
            },
            "address":"上海市凌河路473号",
            "province":"上海市",
            "city":"上海市",
            "area":"浦东新区",
            "street_id":"9f97b1c527a72f7bb64f544c",
            "telephone":"(021)22066902",
            "detail":1,
            "uid":"9f97b1c527a72f7bb64f544c"
        },
        {
            "name":"中国农业银行(上海外滩支行)",
            "location":{
                "lat":31.245766,
                "lng":121.496411
            },
            "address":"中山东一路26号",
            "province":"上海市",
            "city":"上海市",
            "area":"黄浦区",
            "street_id":"9986f4f97aa7d9fb03ec01c4",
            "telephone":"95599",
            "detail":1,
            "uid":"9986f4f97aa7d9fb03ec01c4"
        },
        {
            "name":"中国农业银行(汇暻生活广场)",
            "location":{
                "lat":31.205151,
                "lng":121.484484
            },
            "address":"上海市黄浦区瞿溪路988号汇暻生活广场-A6座F1",
            "province":"上海市",
            "city":"上海市",
            "area":"黄浦区",
            "street_id":"d1087d35434d7e8754bfff14",
            "telephone":"95599",
            "detail":1,
            "uid":"d1087d35434d7e8754bfff14"
        },
        {
            "name":"中国农业银行(城隍庙分理处)",
            "location":{
                "lat":31.234145,
                "lng":121.497271
            },
            "address":"丽水路61-81号",
            "province":"上海市",
            "city":"上海市",
            "area":"黄浦区",
            "street_id":"a25012eaf0ff17aef1193720",
            "detail":1,
            "uid":"a25012eaf0ff17aef1193720"
        },
        {
            "name":"中国农业银行(上海六里支行)",
            "location":{
                "lat":31.186284,
                "lng":121.523472
            },
            "address":"上海市昌里东路655号",
            "province":"上海市",
            "city":"上海市",
            "area":"浦东新区",
            "street_id":"89fd4ea354f5223ae4e9659b",
            "telephone":"(021)68366739",
            "detail":1,
            "uid":"89fd4ea354f5223ae4e9659b"
        },
        {
            "name":"中国农业银行(上南路支行)",
            "location":{
                "lat":31.168678,
                "lng":121.503444
            },
            "address":"上海市浦东新区上南路3016号-3024号",
            "province":"上海市",
            "city":"上海市",
            "area":"浦东新区",
            "street_id":"d02000714fb7b0da306212d4",
            "telephone":"(021)33902084,(021)33902470",
            "detail":1,
            "uid":"e96b4420d758572783288abd"
        }
    ]
}