{
    "status":0,
    "message":"ok",
    "total":400,
    "results":[
        {
            "name":"中国农业银行(上海昆明路支行)",
            "location":{
                "lat":31.266496,
                "lng":121.519954
            },
            "address":"上海市杨浦区昆明路572号",
            "province":"上海市",
            "city":"上海市",
            "area":"杨浦区",
            "street_id":"0f6b541b5c3b5f7cb5f42f0b",
            "telephone":"(021)35301369",
            "detail":1,
            "uid":"0f6b541b5c3b5f7cb5f42f0b"
        },
        {
            "name":"中国农业银行(上海提篮桥支行)",
            "location":{
                "lat":31.259523,
                "lng":121.515392
            },
            "address":"上海市虹口区长阳路18号",
            "province":"上海市",
            "city":"上海市",
            "area":"虹口区",
            "street_id":"39d43f82b4110987a8059d22",
            "telephone":"(021)65455305",
            "detail":1,
            "uid":"39d43f82b4110987a8059d22"
        },
        {
            "name":"中国农业银行(上海浦东大道支行)",
            "location":{
                "lat":31.251768,
                "lng":121.551995
            },
            "address":"上海市浦东新区浦东大道1766-1772",
            "province":"上海市",
            "city":"上海市",
            "area":"浦东新区",
            "street_id":"f9fd6062ada54f1e0f0e6b48",
            "telephone":"(021)58609136",
            "detail":1,
            "uid":"f9fd6062ada54f1e0f0e6b48"
        },
        {
            "name":"中国农业银行(上海隆昌路支行)",
            "location":{
                "lat":31.27569,
                "lng":121.550369
            },
            "address":"上海市杨浦区宁武路280-282号",
            "province":"上海市",
            "city":"上海市",
            "area":"杨浦区",
            "street_id":"101bc61b0cd5dba2c42ba1d0",
            "telephone":"(021)65183428,(021)65183135",
            "detail":1,
            "uid":"101bc61b0cd5dba2c42ba1d0"
        },
        {
            "name":"中国农业银行(上海农银大厦支行)",
            "location":{
                "lat":31.247897,
                "lng":121.515339
            },
            "address":"上海市浦东新区银城路99号地下一层",
            "province":"上海市",
            "city":"上海市",
            "area":"浦东新区",
            "street_id":"da53f77a3f694a67b1077d2c",
            "telephone":"(021)58357553",
            "detail":1,
            "uid":"da53f77a3f694a67b1077d2c"
        },
        {
            "name":"中国农业银行(上海北外滩支行)",
            "location":{
                "lat":31.253006,
                "lng":121.502696
            },
            "address":"上海市虹口区东大名路359号边门",
            "province":"上海市",
            "city":"上海市",
            "area":"虹口区",
            "street_id":"34e48508db52e9e3d8d8912d",
            "telephone":"95599",
            "detail":1,
            "uid":"34e48508db52e9e3d8d8912d"
        },
        {
            "name":"中国农业银行(上海花园路支行)",
            "location":{
                "lat":31.275355,
                "lng":121.485246
            },
            "address":"上海市虹口区花园路16号",
            "province":"上海市",
            "city":"上海市",
            "area":"虹口区",
            "street_id":"a2dae90e2710f9e3b04c499d",
            "telephone":"(021)65878606",
            "detail":1,
            "uid":"a2dae90e2710f9e3b04c499d"
        },
        {
            "name":"中国农业银行(上海四平路支行)",
            "location":{
                "lat":31.28581,
                "lng":121.507206
            },
            "address":"上海市杨浦区赤峰路65号同济大学内",
            "province":"上海市",
            "city":"上海市",
            "area":"杨浦区",
            "street_id":"eef2d528d32910a63be4a6d0",
            "telephone":"(021)33773686",
            "detail":1,
            "uid":"eef2d528d32910a63be4a6d0"
        },
        {
            "name":"中国农业银行(浦东分行理财中心)",
            "location":{
                "lat":31.234925,
                "lng":121.529662
            },
            "address":"上海市浦东新区张杨路838号华都大厦1层",
            "province":"上海市",
            "city":"上海市",
            "area":"浦东新区",
            "street_id":"80fb29e4f9ef760e88b988d3",
            "telephone":"95599",
            "detail":1,
            "uid":"80fb29e4f9ef760e88b988d3"
        },
        {
            "name":"中国农业银行(上海期货大厦支行)",
            "location":{
                "lat":31.231824,
                "lng":121.541603
            },
            "address":"上海市浦东新区松林路300号",
            "province":"上海市",
            "city":"上海市",
            "area":"浦东新区",
            "street_id":"5ffb18164c639f5e6f476049",
            "telephone":"(021)68405272",
            "detail":1,
            "uid":"5ffb18164c639f5e6f476049"
        },
        {
            "name":"中国农业银行(上海大兴街支行)",
            "location":{
                "lat":31.218886,
                "lng":121.495379
            },
            "address":"上海市大兴街34号兴林公寓底层",
            "province":"上海市",
            "city":"上海市",
            "area":"黄浦区",
            "street_id":"1816533483a59005fb2d615e",
            "telephone":"(021)63456996",
            "detail":1,
            "uid":"1816533483a59005fb2d615e"
        },
        {
            "name":"中国农业银行(上海中山南路支行)",
            "location":{
                "lat":31.203517,
                "lng":121.479047
            },
            "address":"打浦路406号",
            "province":"上海市",
            "city":"上海市",
            "area":"黄浦区",
            "street_id":"0e25f6a437408f842fb17efb",
            "telephone":"(021)63463760",
            "detail":1,
            "uid":"0e25f6a437408f842fb17efb"
        },
        {
            "name":"中国农业银行(上海丽园路支行)",
            "location":{
                "lat":31.212879,
                "lng":121.483518
            },
            "address":"上海市黄浦区丽园路857号",
            "province":"上海市",
            "city":"上海市",
            "area":"黄浦区",
            "street_id":"101bc61b9fa348a2c42ba13e",
            "telephone":"(021)53010546",
            "detail":1,
            "uid":"101bc61b9fa348a2c42ba13e"
        },
        {
            "name":"中国农业银行(上海南外滩支行)",
            "location":{
                "lat":31.222144,
                "lng":121.50466
            },
            "address":"上海市中华路567号",
            "province":"上海市",
            "city":"上海市",
            "area":"黄浦区",
            "street_id":"f9fd6062aabb4c1e0f0e6b5e",
            "telephone":"(021)63786927",
            "detail":1,
            "uid":"f9fd6062aabb4c1e0f0e6b5e"
        },
        {
            "name":"中国农业银行(上海城隍庙支行)",
            "location":{
                "lat":31.227929,
                "lng":121.505605
            },
            "address":"上海市黄浦区中华路186号",
            "province":"上海市",
            "city":"上海市",
            "area":"黄浦区",
            "street_id":"e4909d5489554ccb59bbbcec",
            "telephone":"(021)63080599",
            "detail":1,
            "uid":"e4909d5489554ccb59bbbcec"
        },
        {
            "name":"中国农业银行(上海马当路支行)",
            "location":{
                "lat":31.216848,
                "lng":121.482351
            },
            "address":"上海市黄浦区马当路568号一,二层",
            "province":"上海市",
            "city":"上海市",
            "area":"黄浦区",
            "street_id":"66f4ca8683eb1ea9f6c59c7f",
            "telephone":"(021)53966102",
            "detail":1,
            "uid":"66f4ca8683eb1ea9f6c59c7f"
        },
        {
            "name":"中国农业银行(上海斜土路支行)",
            "location":{
                "lat":31.212859,
                "lng":121.490936
            },
            "address":"上海市黄浦区斜土路17号",
            "province":"上海市",
            "city":"上海市",
            "area":"黄浦区",
            "street_id":"3cae00c4c9dbb14a9a68b4b0",
            "telephone":"(021)63040525",
            "detail":1,
            "uid":"3cae00c4c9dbb14a9a68b4b0"
        },
        {
            "name":"中国农业银行(上海湖北路支行)",
            "location":{
                "lat":31.239991,
                "lng":121.487198
            },
            "address":"黄浦区苏州大道东123号汇金大厦1楼",
            "province":"上海市",
            "city":"上海市",
            "area":"黄浦区",
            "street_id":"7d62036323a1d584157643db",
            "telephone":"95599",
            "detail":1,
            "uid":"d437b01511b816974151c0e1"
        },
        {
            "name":"中国农业银行(上海肇嘉浜路支行)",
            "location":{
                "lat":31.208774,
                "lng":121.467998
            },
            "address":"上海市肇嘉浜路301号",
            "province":"上海市",
            "city":"上海市",
            "area":"徐汇区",
            "street_id":"e56bf5e3443f39450782c212",
            "telephone":"(021)64224714",
            "detail":1,
            "uid":"e56bf5e3443f39450782c212"
        },
        {
            "name":"中国农业银行(上海石门二路支行)",
            "location":{
                "lat":31.242345,
                "lng":121.465948
            },
            "address":"上海市静安区石门二路321号",
            "province":"上海市",
            "city":"上海市",
            "area":"静安区",
            "street_id":"beabdbf48fa7b39a7069d35a",
            "telephone":"(021)62158544",
            "detail":1,
            "uid":"beabdbf48fa7b39a7069d35a"
        }
    ]
}