{
    "status":0,
    "message":"ok",
    "total":400,
    "results":[
        {
            "name":"中国建设银行",
            "location":{
                "lat":31.18367,
                "lng":121.700556
            },
            "address":"上海市浦东新区妙境路1394号",
            "province":"上海市",
            "city":"上海市",
            "area":"浦东新区",
            "street_id":"1f6dec4c2fdfed32ad31e52b",
            "telephone":"95533",
            "detail":1,
            "uid":"1f6dec4c2fdfed32ad31e52b"
        },
        {
            "name":"中国建设银行",
            "location":{
                "lat":31.396018,
                "lng":121.244061
            },
            "address":"城北路358号嘉定日月光中心1层",
            "province":"上海市",
            "city":"上海市",
            "area":"嘉定区",
            "telephone":"(021)39590537",
            "detail":1,
            "uid":"15f27c2972c6685329fc480f"
        },
        {
            "name":"中国建设银行(静安支行)",
            "location":{
                "lat":31.230438,
                "lng":121.450947
            },
            "address":"上海市静安区愚园路A座168-172号",
            "province":"上海市",
            "city":"上海市",
            "area":"静安区",
            "street_id":"b0d056f265b4f17fcbc3db82",
            "telephone":"(021)62492527",
            "detail":1,
            "uid":"b0d056f265b4f17fcbc3db82"
        },
        {
            "name":"中国建设银行(上海东方路支行)",
            "location":{
                "lat":31.232475,
                "lng":121.532372
            },
            "address":"上海市浦东新区东方路818号",
            "province":"上海市",
            "city":"上海市",
            "area":"浦东新区",
            "street_id":"08fc93dffe95d9909b68b44e",
            "detail":1,
            "uid":"08fc93dffe95d9909b68b44e"
        },
        {
            "name":"中国建设银行(唐镇支行)",
            "location":{
                "lat":31.213712,
                "lng":121.659254
            },
            "address":"浦东新区唐镇唐安路832号",
            "province":"上海市",
            "city":"上海市",
            "area":"浦东新区",
            "street_id":"6113ef775a6aba158e77277f",
            "telephone":"(021)68793135",
            "detail":1,
            "uid":"6113ef775a6aba158e77277f"
        },
        {
            "name":"中国建设银行",
            "location":{
                "lat":30.977613,
                "lng":121.750005
            },
            "address":"上海市浦东新区大团镇永春东路36-3号",
            "province":"上海市",
            "city":"上海市",
            "area":"浦东新区",
            "street_id":"842222fe7121426daecb66ba",
            "telephone":"95533",
            "detail":1,
            "uid":"842222fe7121426daecb66ba"
        },
        {
            "name":"中国建设银行",
            "location":{
                "lat":31.31912,
                "lng":121.479633
            },
            "address":"上海市虹口区虹湾路",
            "province":"上海市",
            "city":"上海市",
            "area":"虹口区",
            "detail":1,
            "uid":"72d46a9fb32b9c69ea56fa5e"
        },
        {
            "name":"中国建设银行",
            "location":{
                "lat":31.212723,
                "lng":121.559061
            },
            "address":"樱花路433号",
            "province":"上海市",
            "city":"上海市",
            "area":"浦东新区",
            "detail":1,
            "uid":"b112406e20432e133362121a"
        },
        {
            "name":"中国建设银行",
            "location":{
                "lat":31.200037,
                "lng":121.19162
            },
            "address":"上海市青浦区赵重公路2777弄9号",
            "province":"上海市",
            "city":"上海市",
            "area":"青浦区",
            "detail":1,
            "uid":"a3fe269c5e81c60beb56fac0"
        },
        {
            "name":"中国建设银行",
            "location":{
                "lat":31.160437,
                "lng":121.360293
            },
            "address":"上海市闵行区青年路192附近",
            "province":"上海市",
            "city":"上海市",
            "area":"闵行区",
            "detail":1,
            "uid":"913c143d1cd52c14f6c59c77"
        },
        {
            "name":"中国建设银行(西康路支行)",
            "location":{
                "lat":31.242271,
                "lng":121.451612
            },
            "address":"静安区西康路648号",
            "province":"上海市",
            "city":"上海市",
            "area":"静安区",
            "street_id":"373cf75769cc2d6f4254d782",
            "telephone":"(021)95533",
            "detail":1,
            "uid":"373cf75769cc2d6f4254d782"
        },
        {
            "name":"中国建设银行(威海路支行)",
            "location":{
                "lat":31.232491,
                "lng":121.469747
            },
            "address":"上海市静安区石门一路100号",
            "province":"上海市",
            "city":"上海市",
            "area":"静安区",
            "street_id":"f757e6eea1f0bc16270bd082",
            "telephone":"(021)53750873,(021)53750882",
            "detail":1,
            "uid":"f757e6eea1f0bc16270bd082"
        },
        {
            "name":"中国建设银行(安图路支行)",
            "location":{
                "lat":31.298594,
                "lng":121.54743
            },
            "address":"上海市杨浦区安图路92、98号",
            "province":"上海市",
            "city":"上海市",
            "area":"杨浦区",
            "street_id":"92c8b04f90e4f1675e0d02a3",
            "telephone":"(021)65662077",
            "detail":1,
            "uid":"92c8b04f90e4f1675e0d02a3"
        },
        {
            "name":"中国建设银行(上海江湾支行)",
            "location":{
                "lat":31.310001,
                "lng":121.482418
            },
            "address":"上海市虹口区水电路1736号",
            "province":"上海市",
            "city":"上海市",
            "area":"虹口区",
            "street_id":"5508504d03aeeecac7f02527",
            "detail":1,
            "uid":"5508504d03aeeecac7f02527"
        },
        {
            "name":"中国建设银行(上海金桥支行)",
            "location":{
                "lat":31.254603,
                "lng":121.604405
            },
            "address":"上海浦东新区新金桥路196号",
            "province":"上海市",
            "city":"上海市",
            "area":"浦东新区",
            "street_id":"43b7e8895e12806b58f6be4e",
            "telephone":"(021)68823958",
            "detail":1,
            "uid":"43b7e8895e12806b58f6be4e"
        },
        {
            "name":"中国建设银行(信用卡中心)",
            "location":{
                "lat":31.239797,
                "lng":121.540818
            },
            "address":"浦东新区源深路419号",
            "province":"上海市",
            "city":"上海市",
            "area":"浦东新区",
            "street_id":"c8e8f6336c693c11aa0dd899",
            "telephone":"(021)50378888",
            "detail":1,
            "uid":"c8e8f6336c693c11aa0dd899"
        },
        {
            "name":"中国建设银行(南京西路支行)",
            "location":{
                "lat":31.236791,
                "lng":121.472448
            },
            "address":"上海市静安区南京西路585号",
            "province":"上海市",
            "city":"上海市",
            "area":"静安区",
            "street_id":"e6ee2fd23389d9492a11d182",
            "telephone":"(021)62560877",
            "detail":1,
            "uid":"e6ee2fd23389d9492a11d182"
        },
        {
            "name":"中国建设银行(上海万里支行)",
            "location":{
                "lat":31.271874,
                "lng":121.42221
            },
            "address":"广泉路252号",
            "province":"上海市",
            "city":"上海市",
            "area":"普陀区",
            "street_id":"8fde79ccce5469bc95ca077c",
            "telephone":"(021)66095496",
            "detail":1,
            "uid":"8fde79ccce5469bc95ca077c"
        },
        {
            "name":"中国建设银行(上海第六支行)",
            "location":{
                "lat":31.252009,
                "lng":121.461819
            },
            "address":"上海市天目西路290号",
            "province":"上海市",
            "city":"上海市",
            "area":"静安区",
            "street_id":"4fc3161ab43b0ba83a13fdfb",
            "telephone":"(021)63531915",
            "detail":1,
            "uid":"4fc3161ab43b0ba83a13fdfb"
        },
        {
            "name":"中国建设银行(胶州路支行)",
            "location":{
                "lat":31.243676,
                "lng":121.444184
            },
            "address":"上海市普陀区胶州路950号",
            "province":"上海市",
            "city":"上海市",
            "area":"普陀区",
            "street_id":"4bb049d9bc007b39980050a6",
            "telephone":"(021)32530361",
            "detail":1,
            "uid":"4bb049d9bc007b39980050a6"
        }
    ]
}