{
    "status":0,
    "message":"ok",
    "total":400,
    "results":[
        {
            "name":"中国农业银行(上海延吉中路支行)",
            "location":{
                "lat":31.28849,
                "lng":121.534327
            },
            "address":"上海市延吉中路309号",
            "province":"上海市",
            "city":"上海市",
            "area":"杨浦区",
            "street_id":"4edf9fbf0a22d595cc06a4d0",
            "telephone":"(021)55805965",
            "detail":1,
            "uid":"4edf9fbf0a22d595cc06a4d0"
        },
        {
            "name":"中国农业银行(上海控江路支行)",
            "location":{
                "lat":31.28018,
                "lng":121.519672
            },
            "address":"上海市鞍山路7号",
            "province":"上海市",
            "city":"上海市",
            "area":"杨浦区",
            "street_id":"c61bd30505cf3969c27da2d0",
            "telephone":"(021)65620224",
            "detail":1,
            "uid":"c61bd30505cf3969c27da2d0"
        },
        {
            "name":"中国农业银行(上海株洲路支行)",
            "location":{
                "lat":31.285209,
                "lng":121.471923
            },
            "address":"上海市虹口区",
            "province":"上海市",
            "city":"上海市",
            "area":"虹口区",
            "street_id":"7209382a89007b1495f08c23",
            "telephone":"95599",
            "detail":1,
            "uid":"7209382a89007b1495f08c23"
        },
        {
            "name":"中国农业银行(上海北京东路支行)",
            "location":{
                "lat":31.246041,
                "lng":121.488484
            },
            "address":"上海市黄浦区北京东路412号",
            "province":"上海市",
            "city":"上海市",
            "area":"黄浦区",
            "street_id":"4166f8e6f427c11ad6b74e18",
            "telephone":"(021)33302311",
            "detail":1,
            "uid":"4166f8e6f427c11ad6b74e18"
        },
        {
            "name":"中国农业银行(上海宝山路支行)",
            "location":{
                "lat":31.260584,
                "lng":121.481471
            },
            "address":"上海市静安区永兴路105号",
            "province":"上海市",
            "city":"上海市",
            "area":"静安区",
            "street_id":"e116be541f1ae37ac91b95ed",
            "telephone":"(021)56903950",
            "detail":1,
            "uid":"e116be541f1ae37ac91b95ed"
        },
        {
            "name":"中国农业银行(上海新昌路支行)",
            "location":{
                "lat":31.244647,
                "lng":121.472978
            },
            "address":"上海市黄浦区新昌路483号",
            "province":"上海市",
            "city":"上海市",
            "area":"黄浦区",
            "street_id":"d146b388dcbb62df7402695e",
            "telephone":"(021)63594019",
            "detail":1,
            "uid":"d146b388dcbb62df7402695e"
        },
        {
            "name":"中国农业银行(上海陆家浜路支行)",
            "location":{
                "lat":31.217043,
                "lng":121.491085
            },
            "address":"上海市黄浦区陆家浜路1296号",
            "province":"上海市",
            "city":"上海市",
            "area":"黄浦区",
            "street_id":"606289fd6ce5f04ca204645e",
            "telephone":"(021)63771897",
            "detail":1,
            "uid":"606289fd6ce5f04ca204645e"
        },
        {
            "name":"中国农业银行(上海浦三路支行)",
            "location":{
                "lat":31.195948,
                "lng":121.518037
            },
            "address":"上海市浦东新区东方路3498号",
            "province":"上海市",
            "city":"上海市",
            "area":"浦东新区",
            "street_id":"a5ef680f224bddd5b9df8f5b",
            "telephone":"(021)58813773",
            "detail":1,
            "uid":"a5ef680f224bddd5b9df8f5b"
        },
        {
            "name":"中国农业银行(上海灵岩路支行)",
            "location":{
                "lat":31.156383,
                "lng":121.503519
            },
            "address":"上海市浦东新区灵岩南路578号",
            "province":"上海市",
            "city":"上海市",
            "area":"浦东新区",
            "street_id":"e615d5f9a93cafb25b10933e",
            "telephone":"(021)51793983",
            "detail":1,
            "uid":"e615d5f9a93cafb25b10933e"
        },
        {
            "name":"中国农业银行(上海谈家渡支行)",
            "location":{
                "lat":31.242649,
                "lng":121.425836
            },
            "address":"上海市普陀区曹杨路479-481号",
            "province":"上海市",
            "city":"上海市",
            "area":"普陀区",
            "street_id":"8aae96a455a3822487154150",
            "detail":1,
            "uid":"8aae96a455a3822487154150"
        },
        {
            "name":"中国农业银行(上海中山公园支行)",
            "location":{
                "lat":31.222938,
                "lng":121.423545
            },
            "address":"上海市长宁区汇川路93号",
            "province":"上海市",
            "city":"上海市",
            "area":"长宁区",
            "street_id":"637df60ab479527340afe60c",
            "telephone":"(021)52735040",
            "detail":1,
            "uid":"637df60ab479527340afe60c"
        },
        {
            "name":"中国农业银行(上海静安寺支行)",
            "location":{
                "lat":31.228854,
                "lng":121.449073
            },
            "address":"上海市乌鲁木齐北路207号",
            "province":"上海市",
            "city":"上海市",
            "area":"静安区",
            "street_id":"6fddd7fdb0f12e7e3417dc82",
            "telephone":"(021)62497173",
            "detail":1,
            "uid":"6fddd7fdb0f12e7e3417dc82"
        },
        {
            "name":"中国农业银行(上海定西路支行)",
            "location":{
                "lat":31.216802,
                "lng":121.430256
            },
            "address":"上海市定西路998号",
            "province":"上海市",
            "city":"上海市",
            "area":"长宁区",
            "street_id":"504d6113ad021acd4657266a",
            "telephone":"(021)62403103",
            "detail":1,
            "uid":"504d6113ad021acd4657266a"
        },
        {
            "name":"中国农业银行(上海茅台路支行)",
            "location":{
                "lat":31.216264,
                "lng":121.395702
            },
            "address":"上海市长宁区茅台路596号",
            "province":"上海市",
            "city":"上海市",
            "area":"长宁区",
            "street_id":"53cebd50d87c6e602a02e10c",
            "telephone":"(021)62903625",
            "detail":1,
            "uid":"53cebd50d87c6e602a02e10c"
        },
        {
            "name":"中国农业银行(上海古北新区支行)",
            "location":{
                "lat":31.201452,
                "lng":121.401188
            },
            "address":"上海市古北新区荣华东道118号",
            "province":"上海市",
            "city":"上海市",
            "area":"长宁区",
            "street_id":"6fddd7fdb1472d7e3517dc0c",
            "telephone":"(021)62789044",
            "detail":1,
            "uid":"6fddd7fdb1472d7e3517dc0c"
        },
        {
            "name":"中国农业银行(上海钦州北路支行)",
            "location":{
                "lat":31.186482,
                "lng":121.423797
            },
            "address":"上海市徐汇区钦州北路457号",
            "province":"上海市",
            "city":"上海市",
            "area":"徐汇区",
            "street_id":"59f1c683eaaa136633f71d75",
            "telephone":"(021)54260950",
            "detail":1,
            "uid":"59f1c683eaaa136633f71d75"
        },
        {
            "name":"中国农业银行(上海漕河泾支行)",
            "location":{
                "lat":31.169493,
                "lng":121.434208
            },
            "address":"上海市徐汇区冠生园路223号",
            "province":"上海市",
            "city":"上海市",
            "area":"徐汇区",
            "street_id":"e02271e706c009dfb64f543b",
            "telephone":"(021)54970973",
            "detail":1,
            "uid":"e02271e706c009dfb64f543b"
        },
        {
            "name":"中国农业银行(上海桂平路支行)",
            "location":{
                "lat":31.166387,
                "lng":121.41291
            },
            "address":"上海市徐汇区桂平路333号",
            "province":"上海市",
            "city":"上海市",
            "area":"徐汇区",
            "street_id":"827b95609f97c8b609b93aea",
            "telephone":"(021)64179732",
            "detail":1,
            "uid":"827b95609f97c8b609b93aea"
        },
        {
            "name":"中国农业银行(上海南汇支行营业部)",
            "location":{
                "lat":31.053996,
                "lng":121.750043
            },
            "address":"上海市浦东新区通济路二二九弄115号",
            "province":"上海市",
            "city":"上海市",
            "area":"浦东新区",
            "street_id":"08fc93dffee3d9909a68b480",
            "telephone":"(021)68013043",
            "detail":1,
            "uid":"08fc93dffee3d9909a68b480"
        },
        {
            "name":"中国农业银行(上海漕河泾开发区支行)",
            "location":{
                "lat":31.178166,
                "lng":121.4093
            },
            "address":"上海市徐汇区宜山路888号新银大厦1层",
            "province":"上海市",
            "city":"上海市",
            "area":"徐汇区",
            "street_id":"dc0f0adc01c3a65df92213bf",
            "telephone":"(021)64320001",
            "detail":1,
            "uid":"dc0f0adc01c3a65df92213bf"
        }
    ]
}