{
    "status":0,
    "message":"ok",
    "total":400,
    "results":[
        {
            "name":"中国建设银行(上海徐汇支行)",
            "location":{
                "lat":31.201806,
                "lng":121.445621
            },
            "address":"上海市徐汇区衡山路920号",
            "province":"上海市",
            "city":"上海市",
            "area":"徐汇区",
            "street_id":"e3e2cd9d4f037ce2c7f50dc6",
            "telephone":"(021)64075204",
            "detail":1,
            "uid":"e3e2cd9d4f037ce2c7f50dc6"
        },
        {
            "name":"中国建设银行(上海西郊支行)",
            "location":{
                "lat":31.213284,
                "lng":121.376219
            },
            "address":"上海市长宁区剑河路600号",
            "province":"上海市",
            "city":"上海市",
            "area":"长宁区",
            "street_id":"b1736965c43a4897931fc9fc",
            "telephone":"(021)32260982",
            "detail":1,
            "uid":"b1736965c43a4897931fc9fc"
        },
        {
            "name":"中国建设银行(上海康健支行)",
            "location":{
                "lat":31.16649,
                "lng":121.433062
            },
            "address":"上海市徐汇区钦州南路281号",
            "province":"上海市",
            "city":"上海市",
            "area":"徐汇区",
            "street_id":"a5097bfad3918860f03cba71",
            "telephone":"(021)64364480",
            "detail":1,
            "uid":"a5097bfad3918860f03cba71"
        },
        {
            "name":"中国建设银行(上海古北支行)",
            "location":{
                "lat":31.200409,
                "lng":121.400751
            },
            "address":"水城南路36号",
            "province":"上海市",
            "city":"上海市",
            "area":"长宁区",
            "street_id":"f3c2373c66c3e753d22dd60c",
            "telephone":"(021)62789169",
            "detail":1,
            "uid":"f3c2373c66c3e753d22dd60c"
        },
        {
            "name":"中国建设银行(上海南汇支行)",
            "location":{
                "lat":31.054194,
                "lng":121.759896
            },
            "address":"上海浦东新区惠南镇人民西路85号",
            "province":"上海市",
            "city":"上海市",
            "area":"浦东新区",
            "street_id":"c62dad0501a7321c00ec012d",
            "telephone":"(021)68032007,(021)68032005",
            "detail":1,
            "uid":"c62dad0501a7321c00ec012d"
        },
        {
            "name":"中国建设银行(上海长海支行)",
            "location":{
                "lat":31.315672,
                "lng":121.534592
            },
            "address":"长海路136-138号",
            "province":"上海市",
            "city":"上海市",
            "area":"杨浦区",
            "street_id":"803708f1f2b2e10701897254",
            "telephone":"(021)65580167",
            "detail":1,
            "uid":"803708f1f2b2e10701897254"
        },
        {
            "name":"中国建设银行(上海中原支行)",
            "location":{
                "lat":31.331004,
                "lng":121.53807
            },
            "address":"开鲁路434号",
            "province":"上海市",
            "city":"上海市",
            "area":"杨浦区",
            "street_id":"2c0bd6c50f41e1ab43ab9ad0",
            "telephone":"(021)35040246",
            "detail":1,
            "uid":"2c0bd6c50f41e1ab43ab9ad0"
        },
        {
            "name":"中国建设银行(逸仙路支行)",
            "location":{
                "lat":31.305807,
                "lng":121.494186
            },
            "address":"上海市杨浦区逸仙路519号1层06室",
            "province":"上海市",
            "city":"上海市",
            "area":"杨浦区",
            "street_id":"28e700f12a390400095cb322",
            "telephone":"95533,(021)55272031",
            "detail":1,
            "uid":"28e700f12a390400095cb322"
        },
        {
            "name":"中国建设银行(上海洋泾支行)",
            "location":{
                "lat":31.251918,
                "lng":121.560439
            },
            "address":"上海浦东新区崮山路275号",
            "province":"上海市",
            "city":"上海市",
            "area":"浦东新区",
            "street_id":"6deee3082f1ffe6b29fc4849",
            "telephone":"(021)58605223",
            "detail":1,
            "uid":"6deee3082f1ffe6b29fc4849"
        },
        {
            "name":"中国建设银行(中山路支行)",
            "location":{
                "lat":31.2706,
                "lng":121.474378
            },
            "address":"上海市静安区平型关路16号",
            "province":"上海市",
            "city":"上海市",
            "area":"静安区",
            "street_id":"73e75946fd60522bc4f50d4e",
            "telephone":"(021)56300973,(021)56974459",
            "detail":1,
            "uid":"73e75946fd60522bc4f50d4e"
        },
        {
            "name":"中国建设银行(海宁路支行)",
            "location":{
                "lat":31.25264,
                "lng":121.486649
            },
            "address":"上海市静安区海宁路725",
            "province":"上海市",
            "city":"上海市",
            "area":"静安区",
            "street_id":"680fb70344835f9f8bb988fa",
            "telephone":"95533,(021)63073252,(021)63077652",
            "detail":1,
            "uid":"680fb70344835f9f8bb988fa"
        },
        {
            "name":"中国建设银行(上海金茂支行)",
            "location":{
                "lat":31.240918,
                "lng":121.512522
            },
            "address":"上海浦东新区世纪大道88号",
            "province":"上海市",
            "city":"上海市",
            "area":"浦东新区",
            "street_id":"e889a7447980a4b48605bf4e",
            "detail":1,
            "uid":"e889a7447980a4b48605bf4e"
        },
        {
            "name":"中国建设银行(上海第二支行)",
            "location":{
                "lat":31.233456,
                "lng":121.488726
            },
            "address":"上海市黄浦区金陵东路499号",
            "province":"上海市",
            "city":"上海市",
            "area":"黄浦区",
            "street_id":"50fb64ff30a7205ce9f8535e",
            "telephone":"(021)63748170,(021)63263645",
            "detail":1,
            "uid":"50fb64ff30a7205ce9f8535e"
        },
        {
            "name":"中国建设银行(上海杨思支行)",
            "location":{
                "lat":31.160104,
                "lng":121.508802
            },
            "address":"上海浦东新区上南路3521号",
            "province":"上海市",
            "city":"上海市",
            "area":"浦东新区",
            "street_id":"341c35dec817b6bfe70738a6",
            "telephone":"(021)68316193",
            "detail":1,
            "uid":"341c35dec817b6bfe70738a6"
        },
        {
            "name":"中国建设银行(江宁路支行)",
            "location":{
                "lat":31.246553,
                "lng":121.450883
            },
            "address":"陕西北路1165-1167号",
            "province":"上海市",
            "city":"上海市",
            "area":"静安区",
            "street_id":"2fd2beab57d6d4537bdbd282",
            "telephone":"(021)62802072",
            "detail":1,
            "uid":"2fd2beab57d6d4537bdbd282"
        },
        {
            "name":"中国建设银行(大宁路支行)",
            "location":{
                "lat":31.279399,
                "lng":121.454463
            },
            "address":"上海市静安区大宁路613号",
            "province":"上海市",
            "city":"上海市",
            "area":"静安区",
            "street_id":"44207646b6167e6adeee8bed",
            "telephone":"(021)56651193",
            "detail":1,
            "uid":"44207646b6167e6adeee8bed"
        },
        {
            "name":"中国建设银行(上海普陀支行)",
            "location":{
                "lat":31.249794,
                "lng":121.449268
            },
            "address":"上海市普陀区长寿路95号",
            "province":"上海市",
            "city":"上海市",
            "area":"普陀区",
            "street_id":"3a0a78bd1713d1fb631809fc",
            "telephone":"(021)62986909,(021)62996298",
            "detail":1,
            "uid":"3a0a78bd1713d1fb631809fc"
        },
        {
            "name":"中国建设银行(上海临空支行)",
            "location":{
                "lat":31.229018,
                "lng":121.360598
            },
            "address":"上海市长宁区协和路1033号",
            "province":"上海市",
            "city":"上海市",
            "area":"长宁区",
            "street_id":"2560201d32717aac48cc4adb",
            "telephone":"(021)52891023,(021)52891012",
            "detail":1,
            "uid":"2560201d32717aac48cc4adb"
        },
        {
            "name":"中国建设银行(上海龙华支行)",
            "location":{
                "lat":31.179345,
                "lng":121.456323
            },
            "address":"上海市龙华西路127号",
            "province":"上海市",
            "city":"上海市",
            "area":"徐汇区",
            "street_id":"8fde79ccabe874be95ca07c6",
            "telephone":"(021)64576512",
            "detail":1,
            "uid":"8fde79ccabe874be95ca07c6"
        },
        {
            "name":"中国建设银行(上海川沙支行)",
            "location":{
                "lat":31.195641,
                "lng":121.698087
            },
            "address":"上海浦东新区川沙镇妙境路621号",
            "province":"上海市",
            "city":"上海市",
            "area":"浦东新区",
            "street_id":"ffd6d403d7b7d9f316b54b98",
            "telephone":"(021)58923223",
            "detail":1,
            "uid":"ffd6d403d7b7d9f316b54b98"
        }
    ]
}