{
    "status":0,
    "message":"ok",
    "total":400,
    "results":[
        {
            "name":"中国农业银行(上海大宁支行)",
            "location":{
                "lat":31.27697,
                "lng":121.445548
            },
            "address":"上海市静安区运城路277号",
            "province":"上海市",
            "city":"上海市",
            "area":"静安区",
            "street_id":"15e1e85ee9d4bfa3581093ed",
            "detail":1,
            "uid":"15e1e85ee9d4bfa3581093ed"
        },
        {
            "name":"中国农业银行(上海长寿支行)",
            "location":{
                "lat":31.246296,
                "lng":121.44424
            },
            "address":"上海市普陀区常德路1223至1225号",
            "province":"上海市",
            "city":"上海市",
            "area":"普陀区",
            "street_id":"05dd7d5f73ee7800ad080ffc",
            "telephone":"(021)32211891",
            "detail":1,
            "uid":"05dd7d5f73ee7800ad080ffc"
        },
        {
            "name":"中国农业银行(上海真如支行)",
            "location":{
                "lat":31.255045,
                "lng":121.404315
            },
            "address":"上海市普陀区大渡河路1693号",
            "province":"上海市",
            "city":"上海市",
            "area":"普陀区",
            "street_id":"37d60a4693eb0a611e1d11fc",
            "telephone":"(021)52655933",
            "detail":1,
            "uid":"37d60a4693eb0a611e1d11fc"
        },
        {
            "name":"中国农业银行(上海西站支行)",
            "location":{
                "lat":31.266024,
                "lng":121.401396
            },
            "address":"上海市普陀区桃浦路310号",
            "province":"上海市",
            "city":"上海市",
            "area":"普陀区",
            "street_id":"cc788fded3ae73f788fc0679",
            "telephone":"(021)52831018",
            "detail":1,
            "uid":"cc788fded3ae73f788fc0679"
        },
        {
            "name":"中国农业银行(上海康健支行)",
            "location":{
                "lat":31.161778,
                "lng":121.429386
            },
            "address":"上海市徐汇区浦北路221号",
            "province":"上海市",
            "city":"上海市",
            "area":"徐汇区",
            "street_id":"44207646dae36215dfee8b95",
            "telephone":"(021)34600325",
            "detail":1,
            "uid":"44207646dae36215dfee8b95"
        },
        {
            "name":"中国农业银行(上海枫林支行)",
            "location":{
                "lat":31.199799,
                "lng":121.45659
            },
            "address":"上海市徐汇区斜土路2109号",
            "province":"上海市",
            "city":"上海市",
            "area":"徐汇区",
            "street_id":"78bd50f762e10d5a31870a38",
            "telephone":"(021)64037740,(021)64432561",
            "detail":1,
            "uid":"78bd50f762e10d5a31870a38"
        },
        {
            "name":"中国农业银行(上海航头支行)",
            "location":{
                "lat":31.040975,
                "lng":121.603886
            },
            "address":"上海市浦东新区沪南路5469号咸塘小镇商业步行街1层",
            "province":"上海市",
            "city":"上海市",
            "area":"浦东新区",
            "street_id":"14bc32fad7b65d7f0aa8d42f",
            "telephone":"(021)58222321",
            "detail":1,
            "uid":"14bc32fad7b65d7f0aa8d42f"
        },
        {
            "name":"中国农业银行(上海临港支行)",
            "location":{
                "lat":30.87806,
                "lng":121.826974
            },
            "address":"上海市南汇区新元南路555号2楼",
            "province":"上海市",
            "city":"上海市",
            "area":"浦东新区",
            "street_id":"af1ae56b9019a6114207c1e4",
            "telephone":"(021)68284728",
            "detail":1,
            "uid":"af1ae56b9019a6114207c1e4"
        },
        {
            "name":"中国农业银行(上海东海支行)",
            "location":{
                "lat":31.099594,
                "lng":121.818002
            },
            "address":"上海市南汇区祝桥镇东海大街36号",
            "province":"上海市",
            "city":"上海市",
            "area":"浦东新区",
            "street_id":"e6ee2fd23080da492a11d1b5",
            "telephone":"(021)68266531",
            "detail":1,
            "uid":"e6ee2fd23080da492a11d1b5"
        },
        {
            "name":"中国农业银行(上海川沙镇支行)",
            "location":{
                "lat":31.20354,
                "lng":121.695424
            },
            "address":"上海市浦东川沙镇妙境路122号",
            "province":"上海市",
            "city":"上海市",
            "area":"浦东新区",
            "street_id":"fc767524664bac874f776e9b",
            "telephone":"(021)58372060",
            "detail":1,
            "uid":"fc767524664bac874f776e9b"
        },
        {
            "name":"中国农业银行(上海利津路支行)",
            "location":{
                "lat":31.289881,
                "lng":121.600058
            },
            "address":"上海市浦东新区利津路1381号1层",
            "province":"上海市",
            "city":"上海市",
            "area":"浦东新区",
            "street_id":"317d88c090584c9080a00c8b",
            "telephone":"(021)50321390",
            "detail":1,
            "uid":"317d88c090584c9080a00c8b"
        },
        {
            "name":"中国农业银行(上海世界路支行)",
            "location":{
                "lat":31.328628,
                "lng":121.532211
            },
            "address":"上海市杨浦区世界路137号",
            "province":"上海市",
            "city":"上海市",
            "area":"杨浦区",
            "street_id":"9428cdf94b4c690203294f8b",
            "telephone":"(021)65230738",
            "detail":1,
            "uid":"9428cdf94b4c690203294f8b"
        },
        {
            "name":"中国农业银行(上海广延路支行)",
            "location":{
                "lat":31.296556,
                "lng":121.461705
            },
            "address":"上海市静安区共和新路2999弄-11号-105-、106附近",
            "province":"上海市",
            "city":"上海市",
            "area":"静安区",
            "street_id":"e826451f4d327ac04354d70f",
            "telephone":"95599",
            "detail":1,
            "uid":"e826451f4d327ac04354d70f"
        },
        {
            "name":"中国农业银行(上海桃浦新村支行)",
            "location":{
                "lat":31.289888,
                "lng":121.360169
            },
            "address":"上海市雪松路395号",
            "province":"上海市",
            "city":"上海市",
            "area":"普陀区",
            "street_id":"5b25f446413777eb112935b1",
            "telephone":"(021)36522513",
            "detail":1,
            "uid":"5b25f446413777eb112935b1"
        },
        {
            "name":"中国农业银行(上海碧云路支行)",
            "location":{
                "lat":31.242326,
                "lng":121.582328
            },
            "address":"上海市浦东新区碧云路228号",
            "province":"上海市",
            "city":"上海市",
            "area":"浦东新区",
            "street_id":"cde86f0f4c203b457af79676",
            "telephone":"(021)38820029",
            "detail":1,
            "uid":"cde86f0f4c203b457af79676"
        },
        {
            "name":"中国农业银行(上海梅花路分理处)",
            "location":{
                "lat":31.215318,
                "lng":121.555386
            },
            "address":"上海市浦东新区梅花路587号",
            "province":"上海市",
            "city":"上海市",
            "area":"浦东新区",
            "street_id":"93b11fb1add42806fa42b279",
            "telephone":"(021)50454381",
            "detail":1,
            "uid":"93b11fb1add42806fa42b279"
        },
        {
            "name":"中国农业银行(上海长阳路支行)",
            "location":{
                "lat":31.277493,
                "lng":121.54443
            },
            "address":"上海市杨浦区长阳路1919号",
            "province":"上海市",
            "city":"上海市",
            "area":"杨浦区",
            "street_id":"d6ee87246b17379da8f0cd1e",
            "telephone":"(021)65198000",
            "detail":1,
            "uid":"d6ee87246b17379da8f0cd1e"
        },
        {
            "name":"中国农业银行(上海天宝路支行)",
            "location":{
                "lat":31.275138,
                "lng":121.505795
            },
            "address":"上海市虹口区新港路277号",
            "province":"上海市",
            "city":"上海市",
            "area":"虹口区",
            "street_id":"21d785a5c9f82b43f82d6137",
            "telephone":"(021)35323101",
            "detail":1,
            "uid":"21d785a5c9f82b43f82d6137"
        },
        {
            "name":"中国农业银行(上海张杨路支行)",
            "location":{
                "lat":31.241644,
                "lng":121.549794
            },
            "address":"上海市浦东新区张杨路1598号",
            "province":"上海市",
            "city":"上海市",
            "area":"浦东新区",
            "street_id":"d7fd2ad323c044290accdd99",
            "telephone":"(021)58514462",
            "detail":1,
            "uid":"d7fd2ad323c044290accdd99"
        },
        {
            "name":"中国农业银行(上海浦建路支行)",
            "location":{
                "lat":31.21352,
                "lng":121.533395
            },
            "address":"上海市浦建路336号",
            "province":"上海市",
            "city":"上海市",
            "area":"浦东新区",
            "street_id":"1cea15a93a7d79c407fef577",
            "telephone":"(021)58811447",
            "detail":1,
            "uid":"1cea15a93a7d79c407fef577"
        }
    ]
}