{
    "status":0,
    "message":"ok",
    "total":400,
    "results":[
        {
            "name":"中国建设银行(上海上南支行)",
            "location":{
                "lat":31.179743,
                "lng":121.499585
            },
            "address":"上海市浦东新区历城路与昌里路交叉口东北50米",
            "province":"上海市",
            "city":"上海市",
            "area":"浦东新区",
            "telephone":"(021)58335610",
            "detail":1,
            "uid":"e1cd87b747d0099cbe4842dd"
        },
        {
            "name":"中国建设银行(上海真如支行)",
            "location":{
                "lat":31.263944,
                "lng":121.411965
            },
            "address":"上海市普陀区曹杨路2088号金明大厦1层",
            "province":"上海市",
            "city":"上海市",
            "area":"普陀区",
            "street_id":"37fd6ed28b64ff77882fb500",
            "telephone":"(021)62590295",
            "detail":1,
            "uid":"37fd6ed28b64ff77882fb500"
        },
        {
            "name":"中国建设银行(上海紫竹支行)",
            "location":{
                "lat":31.028096,
                "lng":121.455213
            },
            "address":"东川路555号1号楼",
            "province":"上海市",
            "city":"上海市",
            "area":"闵行区",
            "street_id":"46e86fdd4a712a6ed13ce314",
            "telephone":"(021)34290858",
            "detail":1,
            "uid":"46e86fdd4a712a6ed13ce314"
        },
        {
            "name":"中国建设银行(上海新桥支行)",
            "location":{
                "lat":31.068844,
                "lng":121.320572
            },
            "address":"新桥镇新镇街831号",
            "province":"上海市",
            "city":"上海市",
            "area":"松江区",
            "street_id":"0ce65c2dae1fb8582c4733e2",
            "telephone":"(021)57640573",
            "detail":1,
            "uid":"0ce65c2dae1fb8582c4733e2"
        },
        {
            "name":"中国建设银行(上海西渡支行)",
            "location":{
                "lat":30.996091,
                "lng":121.439016
            },
            "address":"西渡镇沪杭公路227号",
            "province":"上海市",
            "city":"上海市",
            "area":"奉贤区",
            "street_id":"9fbfeef2378e3044ede4a53e",
            "telephone":"(021)57156965",
            "detail":1,
            "uid":"9fbfeef2378e3044ede4a53e"
        },
        {
            "name":"中国建设银行(上海泗泾支行)",
            "location":{
                "lat":31.116997,
                "lng":121.280806
            },
            "address":"泗泾镇开江西路448号",
            "province":"上海市",
            "city":"上海市",
            "area":"松江区",
            "street_id":"8cba4bb059d35885ac04579a",
            "telephone":"(021)57610766",
            "detail":1,
            "uid":"8cba4bb059d35885ac04579a"
        },
        {
            "name":"中国建设银行(上海隆安支行)",
            "location":{
                "lat":30.724144,
                "lng":121.352756
            },
            "address":"上海市石化隆安路271号",
            "province":"上海市",
            "city":"上海市",
            "area":"金山区",
            "street_id":"3a0fbba8cddf7e409ee32148",
            "telephone":"(021)57935814",
            "detail":1,
            "uid":"3a0fbba8cddf7e409ee32148"
        },
        {
            "name":"中国建设银行(上海惠南支行)",
            "location":{
                "lat":31.046473,
                "lng":121.757955
            },
            "address":"惠南镇城南路329号、331号一、二层商铺",
            "province":"上海市",
            "city":"上海市",
            "area":"浦东新区",
            "telephone":"(021)20930562",
            "detail":1,
            "uid":"87cd14175c60c200adb22a34"
        },
        {
            "name":"中国建设银行(上海新河支行)",
            "location":{
                "lat":31.587422,
                "lng":121.532923
            },
            "address":"新河镇新开河路558号",
            "province":"上海市",
            "city":"上海市",
            "area":"崇明区",
            "street_id":"a1418eb433ed4d7eebe58254",
            "telephone":"(021)59682629",
            "detail":1,
            "uid":"a1418eb433ed4d7eebe58254"
        },
        {
            "name":"中国建设银行(上海张庙支行)",
            "location":{
                "lat":31.339652,
                "lng":121.453743
            },
            "address":"长江西路1768号",
            "province":"上海市",
            "city":"上海市",
            "area":"宝山区",
            "street_id":"43b7e88979fb9d1458f6bedc",
            "telephone":"(021)56733051",
            "detail":1,
            "uid":"43b7e88979fb9d1458f6bedc"
        },
        {
            "name":"中国建设银行(上海南翔支行)",
            "location":{
                "lat":31.296389,
                "lng":121.315383
            },
            "address":"民主街230号",
            "province":"上海市",
            "city":"上海市",
            "area":"嘉定区",
            "street_id":"a1418eb433a54d7eeae5829c",
            "telephone":"(021)59129965",
            "detail":1,
            "uid":"a1418eb433a54d7eeae5829c"
        },
        {
            "name":"中国建设银行(上海嘉定支行)",
            "location":{
                "lat":31.384936,
                "lng":121.254729
            },
            "address":"上海市嘉定区塔城路365号",
            "province":"上海市",
            "city":"上海市",
            "area":"嘉定区",
            "street_id":"060f5e53d011e7d6091cc795",
            "detail":1,
            "uid":"060f5e53d011e7d6091cc795"
        },
        {
            "name":"中国建设银行(上海安亭支行)",
            "location":{
                "lat":31.295846,
                "lng":121.169342
            },
            "address":"上海嘉定区安亭镇墨玉路28号",
            "province":"上海市",
            "city":"上海市",
            "area":"嘉定区",
            "street_id":"e889a7444fb08ecb8605bf75",
            "telephone":"(021)59579001",
            "detail":1,
            "uid":"e889a7444fb08ecb8605bf75"
        },
        {
            "name":"中国建设银行(上海塘桥支行)",
            "location":{
                "lat":31.201441,
                "lng":121.518889
            },
            "address":"上海市浦东新区临沂路140号百联社区商业中心(临沂路)F1层128",
            "province":"上海市",
            "city":"上海市",
            "area":"浦东新区",
            "telephone":"(021)58758499,(021)68640731",
            "detail":1,
            "uid":"f891e5f53a87177c2ce67b78"
        },
        {
            "name":"中国建设银行(上海梅陇支行)",
            "location":{
                "lat":31.134845,
                "lng":121.425905
            },
            "address":"罗秀路1333号",
            "province":"上海市",
            "city":"上海市",
            "area":"闵行区",
            "street_id":"d7fd2ad33c0d43290bccddd2",
            "telephone":"(021)64765059",
            "detail":1,
            "uid":"d7fd2ad33c0d43290bccddd2"
        },
        {
            "name":"中国建设银行(上海长桥支行)",
            "location":{
                "lat":31.148935,
                "lng":121.443565
            },
            "address":"上海市百色路1018-1028号",
            "province":"上海市",
            "city":"上海市",
            "area":"徐汇区",
            "street_id":"34beccd2d649a36a1b94c65b",
            "telephone":"(021)64245901",
            "detail":1,
            "uid":"34beccd2d649a36a1b94c65b"
        },
        {
            "name":"中国建设银行(上海九亭支行)",
            "location":{
                "lat":31.135147,
                "lng":121.334157
            },
            "address":"九亭镇九亭大街502号",
            "province":"上海市",
            "city":"上海市",
            "area":"松江区",
            "street_id":"2e022f8af0c7def6316212a7",
            "telephone":"(021)57633750",
            "detail":1,
            "uid":"2e022f8af0c7def6316212a7"
        },
        {
            "name":"中国建设银行(上海吴泾支行)",
            "location":{
                "lat":31.048401,
                "lng":121.468003
            },
            "address":"永德路215-217号",
            "province":"上海市",
            "city":"上海市",
            "area":"闵行区",
            "street_id":"6fddd7fdb65f2c7e3517dc14",
            "telephone":"(021)64504630",
            "detail":1,
            "uid":"6fddd7fdb65f2c7e3517dc14"
        },
        {
            "name":"中国建设银行(上海春申支行)",
            "location":{
                "lat":31.110316,
                "lng":121.415968
            },
            "address":"上海市莲花南路1188弄19-21号",
            "province":"上海市",
            "city":"上海市",
            "area":"闵行区",
            "telephone":"(021)54379647",
            "detail":1,
            "uid":"af1ae56b8a43bc134207c100"
        },
        {
            "name":"中国建设银行(上海白鹤支行)",
            "location":{
                "lat":31.263066,
                "lng":121.147395
            },
            "address":"鹤如路60号",
            "province":"上海市",
            "city":"上海市",
            "area":"青浦区",
            "street_id":"803708f1ddc2c878008972a9",
            "telephone":"(021)59741008",
            "detail":1,
            "uid":"803708f1ddc2c878008972a9"
        }
    ]
}