{
    "status":0,
    "message":"ok",
    "total":400,
    "results":[
        {
            "name":"中国农业银行(上海六团支行)",
            "location":{
                "lat":31.160793,
                "lng":121.727137
            },
            "address":"上海市浦东新区普庆路151号一层",
            "province":"上海市",
            "city":"上海市",
            "area":"浦东新区",
            "street_id":"cd8e93f95e5faf624d776e56",
            "telephone":"(021)38931364",
            "detail":1,
            "uid":"cd8e93f95e5faf624d776e56"
        },
        {
            "name":"中国农业银行(上海瓦屑支行)",
            "location":{
                "lat":31.114918,
                "lng":121.660655
            },
            "address":"上海市南汇区周浦镇瓦屑振兴路68号",
            "province":"上海市",
            "city":"上海市",
            "area":"浦东新区",
            "street_id":"5686f91a60102791d618b7d9",
            "telephone":"(021)58153737",
            "detail":1,
            "uid":"5686f91a60102791d618b7d9"
        },
        {
            "name":"中国农业银行(上海万祥支行)",
            "location":{
                "lat":30.976235,
                "lng":121.820829
            },
            "address":"上海市浦东新区万祥镇振万路208号",
            "province":"上海市",
            "city":"上海市",
            "area":"浦东新区",
            "street_id":"9d83fb08ea93ebe26f3e1bd6",
            "telephone":"(021)58046587",
            "detail":1,
            "uid":"9d83fb08ea93ebe26f3e1bd6"
        },
        {
            "name":"中国农业银行(上海黄路支行)",
            "location":{
                "lat":31.031289,
                "lng":121.784547
            },
            "address":"上海市浦东新区黄路镇振兴街126号(汇民路南汇黄家路)",
            "province":"上海市",
            "city":"上海市",
            "area":"浦东新区",
            "street_id":"a01b74b590f4e13fc42ba19d",
            "telephone":"(021)58272079",
            "detail":1,
            "uid":"a01b74b590f4e13fc42ba19d"
        },
        {
            "name":"中国农业银行(上海新场支行)",
            "location":{
                "lat":31.02831,
                "lng":121.650948
            },
            "address":"上海市南汇区新场镇新奉公路281号",
            "province":"上海市",
            "city":"上海市",
            "area":"浦东新区",
            "street_id":"d82d669785f089a7d418b780",
            "telephone":"(021)58172434",
            "detail":1,
            "uid":"d82d669785f089a7d418b780"
        },
        {
            "name":"中国农业银行(上海凌桥支行)",
            "location":{
                "lat":31.371109,
                "lng":121.54977
            },
            "address":"上海市凌桥镇江东路1380弄20号",
            "province":"上海市",
            "city":"上海市",
            "area":"浦东新区",
            "street_id":"aa40108ba8971414c5effb67",
            "telephone":"(021)58642069",
            "detail":1,
            "uid":"aa40108ba8971414c5effb67"
        },
        {
            "name":"中国农业银行(上海营口支行)",
            "location":{
                "lat":31.295339,
                "lng":121.541685
            },
            "address":"上海市杨浦区靖宇东路280号杨浦商贸延吉商业中心F1",
            "province":"上海市",
            "city":"上海市",
            "area":"杨浦区",
            "street_id":"c8b5cdefa80f9f02130daad0",
            "telephone":"(021)55127280",
            "detail":1,
            "uid":"c8b5cdefa80f9f02130daad0"
        },
        {
            "name":"中国农业银行(上海复旦支行)",
            "location":{
                "lat":31.302519,
                "lng":121.510912
            },
            "address":"上海市杨浦区邯郸路220号复旦大学正门旁",
            "province":"上海市",
            "city":"上海市",
            "area":"杨浦区",
            "street_id":"09185c562dbafd5cf1193777",
            "telephone":"(021)65645291,(021)65116376",
            "detail":1,
            "uid":"09185c562dbafd5cf1193777"
        },
        {
            "name":"中国农业银行(大柏树支行)",
            "location":{
                "lat":31.296415,
                "lng":121.497028
            },
            "address":"上海市虹口区曲阳路851弄9号",
            "province":"上海市",
            "city":"上海市",
            "area":"虹口区",
            "street_id":"d0b8923f95bd7de3b5f42f27",
            "telephone":"(021)65538443",
            "detail":1,
            "uid":"d0b8923f95bd7de3b5f42f27"
        },
        {
            "name":"中国农业银行(上海张桥支行)",
            "location":{
                "lat":31.271564,
                "lng":121.61701
            },
            "address":"上海市浦东新区佳林路600号",
            "province":"上海市",
            "city":"上海市",
            "area":"浦东新区",
            "street_id":"00f1c7fb53e96162c056ac48",
            "telephone":"(021)58992541",
            "detail":1,
            "uid":"00f1c7fb53e96162c056ac48"
        },
        {
            "name":"中国农业银行(上海联洋支行)",
            "location":{
                "lat":31.229688,
                "lng":121.557371
            },
            "address":"上海市民生路1433号",
            "province":"上海市",
            "city":"上海市",
            "area":"浦东新区",
            "street_id":"f5e3bcaee285dabf5e17c362",
            "telephone":"(021)68546922",
            "detail":1,
            "uid":"f5e3bcaee285dabf5e17c362"
        },
        {
            "name":"中国农业银行(上海天潼支行)",
            "location":{
                "lat":31.249487,
                "lng":121.48552
            },
            "address":"上海市静安区天潼路768号",
            "province":"上海市",
            "city":"上海市",
            "area":"静安区",
            "street_id":"a1418eb432484e7eebe582fb",
            "telephone":"(021)63932388",
            "detail":1,
            "uid":"a1418eb432484e7eebe582fb"
        },
        {
            "name":"中国农业银行(上海大连支行)",
            "location":{
                "lat":31.279365,
                "lng":121.508432
            },
            "address":"上海市虹口区大连路1615号",
            "province":"上海市",
            "city":"上海市",
            "area":"虹口区",
            "street_id":"cb544f590723d3e79c09f705",
            "telephone":"(021)65135005",
            "detail":1,
            "uid":"cb544f590723d3e79c09f705"
        },
        {
            "name":"中国农业银行(票据营业部)",
            "location":{
                "lat":31.245013,
                "lng":121.516666
            },
            "address":"上海市浦东新区浦东南路377号",
            "province":"上海市",
            "city":"上海市",
            "area":"浦东新区",
            "street_id":"06d2dffd5c1585f788f15d49",
            "telephone":"(021)58871250",
            "detail":1,
            "uid":"06d2dffd5c1585f788f15d49"
        },
        {
            "name":"中国农业银行(上海滨江支行)",
            "location":{
                "lat":31.235033,
                "lng":121.517576
            },
            "address":"上海市浦东新区商城路337号",
            "province":"上海市",
            "city":"上海市",
            "area":"浦东新区",
            "street_id":"f60a15eda3a20cedbb17e777",
            "telephone":"(021)58874616",
            "detail":1,
            "uid":"f60a15eda3a20cedbb17e777"
        },
        {
            "name":"中国农业银行(上海东昌支行)",
            "location":{
                "lat":31.234898,
                "lng":121.529678
            },
            "address":"上海市张杨路828号",
            "province":"上海市",
            "city":"上海市",
            "area":"浦东新区",
            "street_id":"56e88cba5ae74864a4c75649",
            "telephone":"(021)68766511",
            "detail":1,
            "uid":"56e88cba5ae74864a4c75649"
        },
        {
            "name":"中国农业银行(上海北蔡支行)",
            "location":{
                "lat":31.196093,
                "lng":121.558748
            },
            "address":"上海市沪南路589号",
            "province":"上海市",
            "city":"上海市",
            "area":"浦东新区",
            "street_id":"49d959385eac6542c61e5149",
            "telephone":"(021)58437511",
            "detail":1,
            "uid":"49d959385eac6542c61e5149"
        },
        {
            "name":"中国农业银行(上海洪山支行)",
            "location":{
                "lat":31.181272,
                "lng":121.506603
            },
            "address":"上海市浦东新区洪山路189号",
            "province":"上海市",
            "city":"上海市",
            "area":"浦东新区",
            "street_id":"844a750e2c4a1fb8636858b0",
            "telephone":"(021)58745530",
            "detail":1,
            "uid":"844a750e2c4a1fb8636858b0"
        },
        {
            "name":"中国农业银行(上海三林支行)",
            "location":{
                "lat":31.145728,
                "lng":121.507633
            },
            "address":"上海市浦东新区三林路487号",
            "province":"上海市",
            "city":"上海市",
            "area":"浦东新区",
            "street_id":"925c550f52c73db35b3ac8a6",
            "telephone":"(021)58412758",
            "detail":1,
            "uid":"925c550f52c73db35b3ac8a6"
        },
        {
            "name":"中国农业银行(上海沪太支行)",
            "location":{
                "lat":31.287487,
                "lng":121.435614
            },
            "address":"上海市静安区高平路199号101室底层",
            "province":"上海市",
            "city":"上海市",
            "area":"静安区",
            "street_id":"8ab0dfc489acfe6bd9eced86",
            "telephone":"(021)56065356",
            "detail":1,
            "uid":"8ab0dfc489acfe6bd9eced86"
        }
    ]
}