{
    "status":0,
    "message":"ok",
    "total":288,
    "results":[
        {
            "name":"中国农业银行(无锡东绛支行)",
            "location":{
                "lat":31.512066,
                "lng":120.298893
            },
            "address":"江苏省无锡市周新西路51至65号",
            "province":"江苏省",
            "city":"无锡市",
            "area":"滨湖区",
            "street_id":"fbb640c96555817d9322e0a3",
            "telephone":"(0510)85064069",
            "detail":1,
            "uid":"fbb640c96555817d9322e0a3"
        },
        {
            "name":"中国农业银行(张舍分理处)",
            "location":{
                "lat":31.568441,
                "lng":120.147284
            },
            "address":"滨湖区张舍中路",
            "province":"江苏省",
            "city":"无锡市",
            "area":"滨湖区",
            "detail":1,
            "uid":"0a72e4a80e3c3f87c27da2d0"
        },
        {
            "name":"中国农业银行(胡埭园区支行)",
            "location":{
                "lat":31.552706,
                "lng":120.1296
            },
            "address":"江苏省无锡市滨湖区振胡路110-115号",
            "province":"江苏省",
            "city":"无锡市",
            "area":"滨湖区",
            "street_id":"2737aad5c419fa1c1df74d41",
            "telephone":"(0510)85597042,(0510)85597041",
            "detail":1,
            "uid":"2737aad5c419fa1c1df74d41"
        },
        {
            "name":"中国农业银行(无锡八士支行)",
            "location":{
                "lat":31.655608,
                "lng":120.3952
            },
            "address":"江苏省无锡市锡山区锡北镇八士通富街2号",
            "province":"江苏省",
            "city":"无锡市",
            "area":"锡山区",
            "street_id":"c7fb04bd0f8bcd15fb0cadb8",
            "telephone":"(0510)83782837",
            "detail":1,
            "uid":"c7fb04bd0f8bcd15fb0cadb8"
        },
        {
            "name":"中国农业银行(无锡玉祁支行)",
            "location":{
                "lat":31.717751,
                "lng":120.192218
            },
            "address":"无锡市惠山区玉祁镇镇中路6号",
            "province":"江苏省",
            "city":"无锡市",
            "area":"惠山区",
            "telephone":"(0510)83887439,(0510)83887084",
            "detail":1,
            "uid":"be1ea5efb2ba47bf14948e2f"
        },
        {
            "name":"中国农业银行(无锡荡口支行)",
            "location":{
                "lat":31.528299,
                "lng":120.553388
            },
            "address":"江苏省无锡市锡山区新杨路39号",
            "province":"江苏省",
            "city":"无锡市",
            "area":"锡山区",
            "street_id":"5d8b44ab1f8d13612dfaa75b",
            "detail":1,
            "uid":"5d8b44ab1f8d13612dfaa75b"
        },
        {
            "name":"中国农业银行(无锡坊前支行)",
            "location":{
                "lat":31.565945,
                "lng":120.387524
            },
            "address":"江溪街道新芳路18号",
            "province":"江苏省",
            "city":"无锡市",
            "area":"新吴区",
            "street_id":"6d89a352c316d0ebc9fa5fd7",
            "telephone":"(0510)88270710",
            "detail":1,
            "uid":"6d89a352c316d0ebc9fa5fd7"
        },
        {
            "name":"中国农业银行(无锡南站支行)",
            "location":{
                "lat":31.567196,
                "lng":120.332846
            },
            "address":"无锡市新吴区招商城路88号",
            "province":"江苏省",
            "city":"无锡市",
            "area":"新吴区",
            "street_id":"8ab0dfc4194a6e68d8ecede3",
            "telephone":"(0510)85021164",
            "detail":1,
            "uid":"8ab0dfc4194a6e68d8ecede3"
        },
        {
            "name":"中国农业银行(无锡旺庄支行)",
            "location":{
                "lat":31.563039,
                "lng":120.35304
            },
            "address":"无锡市新区长江国际雅园41号15-18",
            "province":"江苏省",
            "city":"无锡市",
            "area":"新吴区",
            "street_id":"4fa497556c5328834207c186",
            "telephone":"(0510)85211360",
            "detail":1,
            "uid":"4fa497556c5328834207c186"
        },
        {
            "name":"中国农业银行(无锡黄巷支行)",
            "location":{
                "lat":31.607209,
                "lng":120.289379
            },
            "address":"江苏省无锡市绿洲花园78号",
            "province":"江苏省",
            "city":"无锡市",
            "area":"梁溪区",
            "street_id":"5508504dbba966b6c7f02521",
            "telephone":"(0510)83192380",
            "detail":1,
            "uid":"5508504dbba966b6c7f02521"
        },
        {
            "name":"中国农业银行(无锡城中支行)",
            "location":{
                "lat":31.571238,
                "lng":120.301573
            },
            "address":"健康路西水东城21-18号",
            "province":"江苏省",
            "city":"无锡市",
            "area":"梁溪区",
            "street_id":"adbd9454b8064fe7deee8b99",
            "telephone":"(0510)82758502",
            "detail":1,
            "uid":"adbd9454b8064fe7deee8b99"
        },
        {
            "name":"中国农业银行(新梁溪支行)",
            "location":{
                "lat":31.555293,
                "lng":120.279937
            },
            "address":"滨湖区建筑路406-6-11号(近新梁溪人家)",
            "province":"江苏省",
            "city":"无锡市",
            "area":"滨湖区",
            "street_id":"083a55fac4462679246e9857",
            "telephone":"(0510)85845770",
            "detail":1,
            "uid":"083a55fac4462679246e9857"
        },
        {
            "name":"中国农业银行(无锡中山支行)",
            "location":{
                "lat":31.577865,
                "lng":120.312759
            },
            "address":"江苏省无锡市梁溪区学前东路65号",
            "province":"江苏省",
            "city":"无锡市",
            "area":"梁溪区",
            "telephone":"(0510)82729459",
            "detail":1,
            "uid":"3de4b34bbbffec2fd92f28b0"
        },
        {
            "name":"中国农业银行(无锡长安支行)",
            "location":{
                "lat":31.680091,
                "lng":120.364053
            },
            "address":"无锡市惠山区长宁路90号",
            "province":"江苏省",
            "city":"无锡市",
            "area":"惠山区",
            "telephone":"(0510)83762412,(0510)83762401",
            "detail":1,
            "uid":"da6a7be81c6d165d882fb5b6"
        },
        {
            "name":"中国农业银行(无锡安镇支行)",
            "location":{
                "lat":31.615044,
                "lng":120.478508
            },
            "address":"江苏省无锡市锡山区安镇锦安路26号",
            "province":"江苏省",
            "city":"无锡市",
            "area":"锡山区",
            "street_id":"04bdf4a3c781f74f344aaeb8",
            "telephone":"(0510)88781698",
            "detail":1,
            "uid":"04bdf4a3c781f74f344aaeb8"
        },
        {
            "name":"中国农业银行(无锡柏庄支行)",
            "location":{
                "lat":31.59297,
                "lng":120.357237
            },
            "address":"江苏省无锡市锡沪路东亭中段158号",
            "province":"江苏省",
            "city":"无锡市",
            "area":"锡山区",
            "street_id":"0305795db7e39e2f97031935",
            "telephone":"(0510)88700173",
            "detail":1,
            "uid":"0305795db7e39e2f97031935"
        },
        {
            "name":"中国农业银行(无锡长欣支行)",
            "location":{
                "lat":31.550259,
                "lng":120.365763
            },
            "address":"旺庄路58号",
            "province":"江苏省",
            "city":"无锡市",
            "area":"新吴区",
            "street_id":"3336cd4b9454f9ae774ff1f2",
            "telephone":"(0510)85213462",
            "detail":1,
            "uid":"3336cd4b9454f9ae774ff1f2"
        },
        {
            "name":"中国农业银行(无锡清扬支行)",
            "location":{
                "lat":31.544988,
                "lng":120.327802
            },
            "address":"清扬路五星家园230-45号",
            "province":"江苏省",
            "city":"无锡市",
            "area":"梁溪区",
            "street_id":"549adc2a7fd75a3cd5851f50",
            "telephone":"(0510)85022457",
            "detail":1,
            "uid":"549adc2a7fd75a3cd5851f50"
        },
        {
            "name":"中国农业银行(无锡东湖塘支行)",
            "location":{
                "lat":31.677651,
                "lng":120.499708
            },
            "address":"江苏省无锡市锡山区东港镇东湖塘兴湖西街3号",
            "province":"江苏省",
            "city":"无锡市",
            "area":"锡山区",
            "telephone":"(0510)88792543",
            "detail":1,
            "uid":"39d38eb12e4dda1afb2213dc"
        },
        {
            "name":"中国农业银行(惠山支行营业部)",
            "location":{
                "lat":31.68182,
                "lng":120.3025
            },
            "address":"无锡市惠山区政和大道178号",
            "province":"江苏省",
            "city":"无锡市",
            "area":"惠山区",
            "street_id":"72172ae7788ac4bb88b98824",
            "telephone":"(0510)83575193",
            "detail":1,
            "uid":"72172ae7788ac4bb88b98824"
        }
    ]
}