{
    "status":0,
    "message":"ok",
    "total":283,
    "results":[
        {
            "name":"中国银行(无锡鸿山支行)",
            "location":{
                "lat":31.489128,
                "lng":120.502562
            },
            "address":"无锡市新区鸿山镇后宅后宅中路86号",
            "province":"江苏省",
            "city":"无锡市",
            "area":"新吴区",
            "street_id":"74c933fb4c9fac5e9f82ea84",
            "telephone":"(0510)88990173",
            "detail":1,
            "uid":"74c933fb4c9fac5e9f82ea84"
        },
        {
            "name":"中国银行(无锡东亭支行)",
            "location":{
                "lat":31.59498,
                "lng":120.373384
            },
            "address":"无锡市锡山区东亭镇友谊路125号",
            "province":"江苏省",
            "city":"无锡市",
            "area":"锡山区",
            "street_id":"f5e3bcae32dc0ac15f17c3bc",
            "telephone":"(0510)88702551",
            "detail":1,
            "uid":"f5e3bcae32dc0ac15f17c3bc"
        },
        {
            "name":"中国银行(无锡叙康支行)",
            "location":{
                "lat":31.569001,
                "lng":120.349254
            },
            "address":"无锡市长江北路172号",
            "province":"江苏省",
            "city":"无锡市",
            "area":"新吴区",
            "street_id":"a25d85df3887ea6428d7abdc",
            "telephone":"(0510)82115095",
            "detail":1,
            "uid":"a25d85df3887ea6428d7abdc"
        },
        {
            "name":"中国银行(无锡锡山支行)",
            "location":{
                "lat":31.591616,
                "lng":120.362131
            },
            "address":"无锡市锡沪中路82号",
            "province":"江苏省",
            "city":"无锡市",
            "area":"锡山区",
            "street_id":"e682eb74fadfcc0c3010afb9",
            "telephone":"(0510)88708216",
            "detail":1,
            "uid":"e682eb74fadfcc0c3010afb9"
        },
        {
            "name":"中国银行(无锡二泉支行)",
            "location":{
                "lat":31.600105,
                "lng":120.271611
            },
            "address":"江苏省无锡市盛岸路211号",
            "province":"江苏省",
            "city":"无锡市",
            "area":"梁溪区",
            "street_id":"41572e00afca3cb4b55f1e89",
            "telephone":"(0510)83734441",
            "detail":1,
            "uid":"41572e00afca3cb4b55f1e89"
        },
        {
            "name":"中国银行(无锡五爱支行)",
            "location":{
                "lat":31.578604,
                "lng":120.297286
            },
            "address":"无锡市五爱路25号",
            "province":"江苏省",
            "city":"无锡市",
            "area":"梁溪区",
            "street_id":"6108521191724ba1c51b7575",
            "telephone":"(0510)82708040",
            "detail":1,
            "uid":"6108521191724ba1c51b7575"
        },
        {
            "name":"中国银行(无锡崇宁支行)",
            "location":{
                "lat":31.579599,
                "lng":120.312443
            },
            "address":"江苏省无锡市崇宁路25号",
            "province":"江苏省",
            "city":"无锡市",
            "area":"梁溪区",
            "street_id":"d6df91c15df2c76af7b91643",
            "telephone":"(0510)82733510",
            "detail":1,
            "uid":"d6df91c15df2c76af7b91643"
        },
        {
            "name":"中国银行(无锡茂业支行)",
            "location":{
                "lat":31.555796,
                "lng":120.317711
            },
            "address":"江苏省无锡市清扬路119号",
            "province":"江苏省",
            "city":"无锡市",
            "area":"梁溪区",
            "street_id":"a5097bfa65491a1ef03cba2b",
            "telephone":"(0510)85755375",
            "detail":1,
            "uid":"a5097bfa65491a1ef03cba2b"
        },
        {
            "name":"中国银行(无锡北塘支行)",
            "location":{
                "lat":31.593093,
                "lng":120.302271
            },
            "address":"无锡市中山路728号",
            "province":"江苏省",
            "city":"无锡市",
            "area":"梁溪区",
            "street_id":"ef773a0fcbbf833423022089",
            "telephone":"(0510)82602661",
            "detail":1,
            "uid":"ef773a0fcbbf833423022089"
        },
        {
            "name":"中国银行(无锡滨湖支行)",
            "location":{
                "lat":31.568437,
                "lng":120.286744
            },
            "address":"无锡市梁青路2号",
            "province":"江苏省",
            "city":"无锡市",
            "area":"滨湖区",
            "street_id":"07f3c8b53aa2be636240a957",
            "telephone":"(0510)85875736",
            "detail":1,
            "uid":"07f3c8b53aa2be636240a957"
        },
        {
            "name":"中国银行(无锡华庄支行)",
            "location":{
                "lat":31.486506,
                "lng":120.356784
            },
            "address":"无锡市华庄公园路75号",
            "province":"江苏省",
            "city":"无锡市",
            "area":"滨湖区",
            "street_id":"74c933fb4cbeac5e9f82eaa7",
            "telephone":"(0510)85602988",
            "detail":1,
            "uid":"74c933fb4cbeac5e9f82eaa7"
        },
        {
            "name":"中国银行(无锡中桥支行)",
            "location":{
                "lat":31.53996,
                "lng":120.283358
            },
            "address":"无锡市滨湖区湖滨路1289号",
            "province":"江苏省",
            "city":"无锡市",
            "area":"滨湖区",
            "street_id":"f8d615fd508620bd2fb96d69",
            "telephone":"(0510)85404047",
            "detail":1,
            "uid":"f8d615fd508620bd2fb96d69"
        },
        {
            "name":"中国银行(无锡杨市支行)",
            "location":{
                "lat":31.630703,
                "lng":120.146197
            },
            "address":"无锡市洛社镇杨市园大街55号",
            "province":"江苏省",
            "city":"无锡市",
            "area":"惠山区",
            "telephone":"(0510)83551244",
            "detail":1,
            "uid":"083a55fac4a12679246e983a"
        },
        {
            "name":"中国银行(无锡港下支行)",
            "location":{
                "lat":31.707695,
                "lng":120.556999
            },
            "address":"无锡市锡山区东港镇港下兴港路122号",
            "province":"江苏省",
            "city":"无锡市",
            "area":"锡山区",
            "telephone":"(0510)88762321",
            "detail":1,
            "uid":"2e94c23c8d8836792b201a38"
        },
        {
            "name":"中国银行(无锡张泾支行)",
            "location":{
                "lat":31.667215,
                "lng":120.449394
            },
            "address":"无锡市锡山区锡北镇张泾锡港东路27号",
            "province":"江苏省",
            "city":"无锡市",
            "area":"锡山区",
            "telephone":"(0510)83794718",
            "detail":1,
            "uid":"4fb9dac052a7579882a12e5b"
        },
        {
            "name":"中国银行(无锡八士支行)",
            "location":{
                "lat":31.654178,
                "lng":120.394722
            },
            "address":"无锡市锡山区锡北镇八士街道蓉北大街1号",
            "province":"江苏省",
            "city":"无锡市",
            "area":"锡山区",
            "street_id":"cd2fbf7a6b2aee6458109327",
            "telephone":"(0510)83781027",
            "detail":1,
            "uid":"cd2fbf7a6b2aee6458109327"
        },
        {
            "name":"中国银行(无锡绿地支行)",
            "location":{
                "lat":31.668737,
                "lng":120.325441
            },
            "address":"无锡市惠山区华惠路119号",
            "province":"江苏省",
            "city":"无锡市",
            "area":"惠山区",
            "street_id":"513cce18c5a65a7b373a71b3",
            "telephone":"(0510)85215225",
            "detail":1,
            "uid":"513cce18c5a65a7b373a71b3"
        },
        {
            "name":"中国银行(无锡玉祁支行)",
            "location":{
                "lat":31.717582,
                "lng":120.190452
            },
            "address":"无锡市玉祁振祁路50号",
            "province":"江苏省",
            "city":"无锡市",
            "area":"惠山区",
            "telephone":"(0510)83885564",
            "detail":1,
            "uid":"e85e252762ab555395f08c2f"
        },
        {
            "name":"中国银行(无锡洛社支行)",
            "location":{
                "lat":31.647913,
                "lng":120.1942
            },
            "address":"无锡市洛社新兴西路1号",
            "province":"江苏省",
            "city":"无锡市",
            "area":"惠山区",
            "street_id":"038a146af3225537d4851f5e",
            "telephone":"(0510)83311020",
            "detail":1,
            "uid":"038a146af3225537d4851f5e"
        },
        {
            "name":"中国银行(无锡羊尖支行)",
            "location":{
                "lat":31.631683,
                "lng":120.566437
            },
            "address":"江苏省无锡市锡山区羊尖镇锡沪东路8号",
            "province":"江苏省",
            "city":"无锡市",
            "area":"锡山区",
            "telephone":"(0510)88730287",
            "detail":1,
            "uid":"9f030b66cf27879ec6effb68"
        }
    ]
}