{
    "status":0,
    "message":"ok",
    "total":288,
    "results":[
        {
            "name":"中国农业银行",
            "location":{
                "lat":31.547754,
                "lng":120.387767
            },
            "address":"江苏省无锡市新吴区锡士路89号附近",
            "province":"江苏省",
            "city":"无锡市",
            "area":"新吴区",
            "street_id":"74a7b168c86f8742eedfca4f",
            "detail":1,
            "uid":"74a7b168c86f8742eedfca4f"
        },
        {
            "name":"中国农业银行(梅村支行)",
            "location":{
                "lat":31.54803,
                "lng":120.439107
            },
            "address":"江苏省无锡市新吴区梅南路20号",
            "province":"江苏省",
            "city":"无锡市",
            "area":"新吴区",
            "street_id":"aa9397ae7c0c937088db73d3",
            "telephone":"(0510)88158778,(0510)88150232",
            "detail":1,
            "uid":"aa9397ae7c0c937088db73d3"
        },
        {
            "name":"中国农业银行(和风路)",
            "location":{
                "lat":31.495262,
                "lng":120.3738
            },
            "address":"江苏省无锡市新吴区和风路新发汇融商务广场2号",
            "province":"江苏省",
            "city":"无锡市",
            "area":"新吴区",
            "street_id":"05f4446de02b1ab3abf0cd4c",
            "telephone":"(0510)85210470",
            "detail":1,
            "uid":"05f4446de02b1ab3abf0cd4c"
        },
        {
            "name":"中国农业银行(稻香支行)",
            "location":{
                "lat":31.551256,
                "lng":120.281802
            },
            "address":"水秀新村413号",
            "province":"江苏省",
            "city":"无锡市",
            "area":"滨湖区",
            "street_id":"919e5559db27ee4f6fa3cca3",
            "detail":1,
            "uid":"919e5559db27ee4f6fa3cca3"
        },
        {
            "name":"中国农业银行(胡埭支行)",
            "location":{
                "lat":31.56005,
                "lng":120.132048
            },
            "address":"江苏省无锡市滨湖区振胡路S1幢115号",
            "province":"江苏省",
            "city":"无锡市",
            "area":"滨湖区",
            "street_id":"15e1e85ef8624ea25810935f",
            "telephone":"(0510)85597041",
            "detail":1,
            "uid":"15e1e85ef8624ea25810935f"
        },
        {
            "name":"中国农业银行",
            "location":{
                "lat":31.616343,
                "lng":120.337581
            },
            "address":"江苏省无锡市梁溪区陈记海鲜莆田风味馆(广瑞路店)",
            "province":"江苏省",
            "city":"无锡市",
            "area":"梁溪区",
            "street_id":"b5fc331f4851cc04f7e73bc6",
            "detail":1,
            "uid":"b5fc331f4851cc04f7e73bc6"
        },
        {
            "name":"中国农业银行",
            "location":{
                "lat":31.859782,
                "lng":120.004781
            },
            "address":"江苏省无锡市江阴市璜土镇常澄路龙城花园(江苏文苏饭店北)",
            "province":"江苏省",
            "city":"无锡市",
            "area":"江阴市",
            "detail":1,
            "uid":"5716792a9f2e37afb54f5413"
        },
        {
            "name":"中国农业银行(港下支行)",
            "location":{
                "lat":31.706786,
                "lng":120.551499
            },
            "address":"健康路247号",
            "province":"江苏省",
            "city":"无锡市",
            "area":"锡山区",
            "telephone":"(0510)88761412",
            "detail":1,
            "uid":"8cba4bb0bf7742faad04572c"
        },
        {
            "name":"中国农业银行(洛社支行)",
            "location":{
                "lat":31.646927,
                "lng":120.193904
            },
            "address":"人民南路1号",
            "province":"江苏省",
            "city":"无锡市",
            "area":"惠山区",
            "street_id":"be54cde9006dc45878f7963a",
            "telephone":"(0510)83311235",
            "detail":1,
            "uid":"be54cde9006dc45878f7963a"
        },
        {
            "name":"中国农业银行(灵山支行)",
            "location":{
                "lat":31.466266,
                "lng":120.122145
            },
            "address":"江苏省无锡市滨湖区梅梁路26号",
            "province":"江苏省",
            "city":"无锡市",
            "area":"滨湖区",
            "telephone":"(0510)85995583",
            "detail":1,
            "uid":"fc10e8b417b87ce8e5e9653f"
        },
        {
            "name":"中国农业银行(前洲支行)",
            "location":{
                "lat":31.696437,
                "lng":120.221825
            },
            "address":"前州镇商业街27号",
            "province":"江苏省",
            "city":"无锡市",
            "area":"惠山区",
            "telephone":"(0510)83394137",
            "detail":1,
            "uid":"79446672dfd7767c4f6d460c"
        },
        {
            "name":"中国农业银行(无锡西漳支行)",
            "location":{
                "lat":31.652066,
                "lng":120.303512
            },
            "address":"惠山区堰桥镇西漳天润苑1-5号",
            "province":"江苏省",
            "city":"无锡市",
            "area":"惠山区",
            "street_id":"5ffb181663866e5f6f476032",
            "telephone":"(0510)83751496",
            "detail":1,
            "uid":"5ffb181663866e5f6f476032"
        },
        {
            "name":"中国农业银行(无锡甘露支行)",
            "location":{
                "lat":31.549693,
                "lng":120.584776
            },
            "address":"无锡市锡山区甘露大街84号",
            "province":"江苏省",
            "city":"无锡市",
            "area":"锡山区",
            "street_id":"af4727fd79fb68e39e82ea53",
            "telephone":"(0510)88751853",
            "detail":1,
            "uid":"af4727fd79fb68e39e82ea53"
        },
        {
            "name":"中国农业银行(无锡广益支行)",
            "location":{
                "lat":31.599319,
                "lng":120.345197
            },
            "address":"江苏省无锡市梁溪区广益路万博商业广场13号101-108号",
            "province":"江苏省",
            "city":"无锡市",
            "area":"梁溪区",
            "street_id":"aee92062a18a46b3c156aca7",
            "telephone":"(0510)82402928",
            "detail":1,
            "uid":"aee92062a18a46b3c156aca7"
        },
        {
            "name":"中国农业银行(无锡东门支行)",
            "location":{
                "lat":31.586682,
                "lng":120.341525
            },
            "address":"江苏省无锡市梁溪区学前东路797号",
            "province":"江苏省",
            "city":"无锡市",
            "area":"梁溪区",
            "detail":1,
            "uid":"0299b321e83d5bacd81318bf"
        },
        {
            "name":"中国农业银行(无锡江海支行)",
            "location":{
                "lat":31.594879,
                "lng":120.332915
            },
            "address":"江苏省无锡市锡沪中路601号—1027",
            "province":"江苏省",
            "city":"无锡市",
            "area":"梁溪区",
            "street_id":"a5b59284664b888614b54bc5",
            "telephone":"(0510)82403977",
            "detail":1,
            "uid":"a5b59284664b888614b54bc5"
        },
        {
            "name":"中国农业银行(无锡北塘支行)",
            "location":{
                "lat":31.609264,
                "lng":120.300882
            },
            "address":"梁溪区民丰路233号(近凤宾路)",
            "province":"江苏省",
            "city":"无锡市",
            "area":"梁溪区",
            "street_id":"3c501c733165bd2f8e772764",
            "telephone":"(0510)83102266",
            "detail":1,
            "uid":"3c501c733165bd2f8e772764"
        },
        {
            "name":"中国农业银行(无锡玉泉支行)",
            "location":{
                "lat":31.616459,
                "lng":120.247505
            },
            "address":"江苏省无锡市惠山区盛岸西路418号",
            "province":"江苏省",
            "city":"无锡市",
            "area":"惠山区",
            "street_id":"4760fb6f7e6aab8905026fcf",
            "telephone":"(0510)83225091",
            "detail":1,
            "uid":"4760fb6f7e6aab8905026fcf"
        },
        {
            "name":"中国农业银行(无锡南长支行)",
            "location":{
                "lat":31.568348,
                "lng":120.316821
            },
            "address":"江苏省无锡市南长街168号",
            "province":"江苏省",
            "city":"无锡市",
            "area":"梁溪区",
            "street_id":"bff8fa7d374cd3dcc8213d38",
            "telephone":"(0510)85037711",
            "detail":1,
            "uid":"bff8fa7d374cd3dcc8213d38"
        },
        {
            "name":"中国农业银行(无锡扬名支行)",
            "location":{
                "lat":31.55359,
                "lng":120.319135
            },
            "address":"江苏省无锡市清扬路156-1号",
            "province":"江苏省",
            "city":"无锡市",
            "area":"梁溪区",
            "street_id":"cb4fd1468be309419d9d6875",
            "telephone":"(0510)85755743",
            "detail":1,
            "uid":"cb4fd1468be309419d9d6875"
        }
    ]
}