{
    "status":0,
    "message":"ok",
    "total":283,
    "results":[
        {
            "name":"中国银行(无锡万顺道支行)",
            "location":{
                "lat":31.502789,
                "lng":120.291157
            },
            "address":"江苏省无锡市滨湖区万顺道56号附近",
            "province":"江苏省",
            "city":"无锡市",
            "area":"滨湖区",
            "detail":1,
            "uid":"289265b26a980e1a2bb97c6b"
        },
        {
            "name":"中国银行(无锡东北塘支行)",
            "location":{
                "lat":31.635393,
                "lng":120.360621
            },
            "address":"无锡市锡山区东北塘镇东方名苑29至30号",
            "province":"江苏省",
            "city":"无锡市",
            "area":"锡山区",
            "street_id":"7c5e480bf96adcc9adb22a21",
            "telephone":"(0510)83774271",
            "detail":1,
            "uid":"7c5e480bf96adcc9adb22a21"
        },
        {
            "name":"中国银行(无锡建筑路支行)",
            "location":{
                "lat":31.555806,
                "lng":120.294472
            },
            "address":"无锡市建筑路156号",
            "province":"江苏省",
            "city":"无锡市",
            "area":"梁溪区",
            "street_id":"08f1f1f5f7ae0cca88db7375",
            "telephone":"(0510)82724963",
            "detail":1,
            "uid":"08f1f1f5f7ae0cca88db7375"
        },
        {
            "name":"中国银行(无锡人民路支行)",
            "location":{
                "lat":31.579874,
                "lng":120.302524
            },
            "address":"江苏省无锡市梁溪区健康路18号",
            "province":"江苏省",
            "city":"无锡市",
            "area":"梁溪区",
            "street_id":"0b2e36619ec3ec7bc91b9509",
            "telephone":"(0510)82729741",
            "detail":1,
            "uid":"0b2e36619ec3ec7bc91b9509"
        },
        {
            "name":"中国银行(无锡东湖塘支行)",
            "location":{
                "lat":31.677835,
                "lng":120.500501
            },
            "address":"无锡市锡山区东港镇东湖塘东升路17号",
            "province":"江苏省",
            "city":"无锡市",
            "area":"锡山区",
            "telephone":"(0510)88791358",
            "detail":1,
            "uid":"e52c3307bce8f17193114c67"
        },
        {
            "name":"中国银行(无锡长江北路支行)",
            "location":{
                "lat":31.559898,
                "lng":120.354238
            },
            "address":"无锡市长江北路77号",
            "province":"江苏省",
            "city":"无锡市",
            "area":"新吴区",
            "street_id":"3f826ed3e277a546d1f49e57",
            "telephone":"(0510)82205361",
            "detail":1,
            "uid":"3f826ed3e277a546d1f49e57"
        },
        {
            "name":"中国银行(无锡文化宫支行)",
            "location":{
                "lat":31.568158,
                "lng":120.313557
            },
            "address":"无锡市梁溪区永丰路117号",
            "province":"江苏省",
            "city":"无锡市",
            "area":"梁溪区",
            "street_id":"5211d219f976c8587dc87675",
            "telephone":"(0510)85025625",
            "detail":1,
            "uid":"5211d219f976c8587dc87675"
        },
        {
            "name":"中国银行(无锡金石路支行)",
            "location":{
                "lat":31.530424,
                "lng":120.317944
            },
            "address":"无锡市梁溪区南湖大道580号",
            "province":"江苏省",
            "city":"无锡市",
            "area":"梁溪区",
            "street_id":"a37b7543b6f558e28bf15d94",
            "telephone":"(0510)85010514",
            "detail":1,
            "uid":"a37b7543b6f558e28bf15d94"
        },
        {
            "name":"中国银行(无锡瑜憬湾支行)",
            "location":{
                "lat":31.555237,
                "lng":120.259051
            },
            "address":"无锡市建筑西路72号",
            "province":"江苏省",
            "city":"无锡市",
            "area":"滨湖区",
            "street_id":"f4a33da9ccb4d6773010af54",
            "telephone":"(0510)85865940",
            "detail":1,
            "uid":"f4a33da9ccb4d6773010af54"
        },
        {
            "name":"中国银行(无锡万科城市花园支行)",
            "location":{
                "lat":31.508654,
                "lng":120.287488
            },
            "address":"无锡市滨湖区万科城市花园一区80号",
            "province":"江苏省",
            "city":"无锡市",
            "area":"滨湖区",
            "telephone":"(0510)85075335",
            "detail":1,
            "uid":"4ffc11c1da612db321026278"
        },
        {
            "name":"中国银行(曙光路)",
            "location":{
                "lat":31.255276,
                "lng":119.852594
            },
            "address":"丁蜀镇鑫圩新村48号",
            "province":"江苏省",
            "city":"无锡市",
            "area":"宜兴市",
            "street_id":"095486f0cc649d70fbf0cb39",
            "detail":1,
            "uid":"095486f0cc649d70fbf0cb39"
        },
        {
            "name":"中国银行(无锡分行中银汇兑分中心)",
            "location":{
                "lat":31.579645,
                "lng":120.312414
            },
            "address":"江苏省无锡市梁溪区崇宁路23号",
            "province":"江苏省",
            "city":"无锡市",
            "area":"梁溪区",
            "street_id":"98892e4a1bac91ecbea24020",
            "detail":1,
            "uid":"98892e4a1bac91ecbea24020"
        },
        {
            "name":"中国银行(周铁支行)",
            "location":{
                "lat":31.442533,
                "lng":120.002882
            },
            "address":"周铁镇朝阳路19号",
            "province":"江苏省",
            "city":"无锡市",
            "area":"宜兴市",
            "detail":1,
            "uid":"5c2dc21dc5e620046ec02c9d"
        },
        {
            "name":"中国银行(宜兴支行)",
            "location":{
                "lat":31.376742,
                "lng":119.823254
            },
            "address":"江苏省无锡市宜兴市太滆西路106号",
            "province":"江苏省",
            "city":"无锡市",
            "area":"宜兴市",
            "street_id":"3a0fbba8037230419ee321ea",
            "telephone":"(0510)87904917,(0510)87907870",
            "detail":1,
            "uid":"3a0fbba8037230419ee321ea"
        },
        {
            "name":"中国银行(丁蜀支行)",
            "location":{
                "lat":31.261529,
                "lng":119.847706
            },
            "address":"丁蜀镇解放西路1号",
            "province":"江苏省",
            "city":"无锡市",
            "area":"宜兴市",
            "street_id":"a5ef680f6df306d7b9df8ff0",
            "telephone":"(0510)87401168,(0510)87400658",
            "detail":1,
            "uid":"a5ef680f6df306d7b9df8ff0"
        },
        {
            "name":"中国银行(华士支行)",
            "location":{
                "lat":31.838162,
                "lng":120.473492
            },
            "address":"江阴市华士镇人民中路63号",
            "province":"江苏省",
            "city":"无锡市",
            "area":"江阴市",
            "street_id":"eef2d528c386e0a73be4a661",
            "detail":1,
            "uid":"eef2d528c386e0a73be4a661"
        },
        {
            "name":"中国银行(分水支行)",
            "location":{
                "lat":31.498881,
                "lng":120.033874
            },
            "address":"宜兴市周铁镇人民路145号",
            "province":"江苏省",
            "city":"无锡市",
            "area":"宜兴市",
            "telephone":"(0510)87551996",
            "detail":1,
            "uid":"56e88cba69b8b965a5c75698"
        },
        {
            "name":"中国银行(滨江支行)",
            "location":{
                "lat":31.923757,
                "lng":120.290733
            },
            "address":"江阴市花园路101号",
            "province":"江苏省",
            "city":"无锡市",
            "area":"江阴市",
            "street_id":"23671071891c4d9658109327",
            "telephone":"(0510)80667089",
            "detail":1,
            "uid":"23671071891c4d9658109327"
        },
        {
            "name":"中国银行(江阴支行)",
            "location":{
                "lat":31.909973,
                "lng":120.284304
            },
            "address":"江苏省江阴市人民中路1号",
            "province":"江苏省",
            "city":"无锡市",
            "area":"江阴市",
            "street_id":"373cf7574761df6e4354d711",
            "detail":1,
            "uid":"373cf7574761df6e4354d711"
        },
        {
            "name":"中国银行(无锡高新技术产业开发区支行)",
            "location":{
                "lat":31.547765,
                "lng":120.361427
            },
            "address":"无锡市旺庄路140号",
            "province":"江苏省",
            "city":"无锡市",
            "area":"新吴区",
            "street_id":"d305db1fd499cf3e932ca357",
            "telephone":"(0510)85223150",
            "detail":1,
            "uid":"d305db1fd499cf3e932ca357"
        }
    ]
}