{
    "status":0,
    "message":"ok",
    "total":283,
    "results":[
        {
            "name":"中国银行(无锡鸿山支行)",
            "location":{
                "lat":31.489128,
                "lng":120.502562
            },
            "address":"无锡市新区鸿山镇后宅后宅中路86号",
            "province":"江苏省",
            "city":"无锡市",
            "area":"新吴区",
            "street_id":"74c933fb4c9fac5e9f82ea84",
            "telephone":"(0510)88990173",
            "detail":1,
            "uid":"74c933fb4c9fac5e9f82ea84"
        },
        {
            "name":"中国银行(无锡东亭支行)",
            "location":{
                "lat":31.59498,
                "lng":120.373384
            },
            "address":"无锡市锡山区东亭镇友谊路125号",
            "province":"江苏省",
            "city":"无锡市",
            "area":"锡山区",
            "street_id":"f5e3bcae32dc0ac15f17c3bc",
            "telephone":"(0510)88702551",
            "detail":1,
            "uid":"f5e3bcae32dc0ac15f17c3bc"
        },
        {
            "name":"中国银行(无锡叙康支行)",
            "location":{
                "lat":31.569001,
                "lng":120.349254
            },
            "address":"无锡市长江北路172号",
            "province":"江苏省",
            "city":"无锡市",
            "area":"新吴区",
            "street_id":"a25d85df3887ea6428d7abdc",
            "telephone":"(0510)82115095",
            "detail":1,
            "uid":"a25d85df3887ea6428d7abdc"
        },
        {
            "name":"中国银行(无锡锡山支行)",
            "location":{
                "lat":31.591616,
                "lng":120.362131
            },
            "address":"无锡市锡沪中路82号",
            "province":"江苏省",
            "city":"无锡市",
            "area":"锡山区",
            "street_id":"e682eb74fadfcc0c3010afb9",
            "telephone":"(0510)88708216",
            "detail":1,
            "uid":"e682eb74fadfcc0c3010afb9"
        },
        {
            "name":"中国银行(无锡二泉支行)",
            "location":{
                "lat":31.600105,
                "lng":120.271611
            },
            "address":"江苏省无锡市盛岸路211号",
            "province":"江苏省",
            "city":"无锡市",
            "area":"梁溪区",
            "street_id":"41572e00afca3cb4b55f1e89",
            "telephone":"(0510)83734441",
            "detail":1,
            "uid":"41572e00afca3cb4b55f1e89"
        }
    ]
}