{
    "status":0,
    "message":"ok",
    "total":288,
    "results":[
        {
            "name":"中国农业银行(无锡任钱路支行)",
            "location":{
                "lat":31.636147,
                "lng":120.304086
            },
            "address":"惠山区凤翔馨城2号",
            "province":"江苏省",
            "city":"无锡市",
            "area":"惠山区",
            "street_id":"2a7a25ec0ceb26636d3e1b89",
            "telephone":"(0510)82695681",
            "detail":1,
            "uid":"2a7a25ec0ceb26636d3e1b89"
        },
        {
            "name":"中国农业银行(无锡山水城支行)",
            "location":{
                "lat":31.4447,
                "lng":120.274572
            },
            "address":"江苏省无锡市滨湖区镇南泉庭园58号",
            "province":"江苏省",
            "city":"无锡市",
            "area":"滨湖区",
            "street_id":"7a72c2b51b69629c29fc4898",
            "telephone":"(0510)85952383",
            "detail":1,
            "uid":"7a72c2b51b69629c29fc4898"
        },
        {
            "name":"中国农业银行(无锡石塘湾支行)",
            "location":{
                "lat":31.655021,
                "lng":120.23168
            },
            "address":"惠山区洛社镇石塘湾育才路10号",
            "province":"江苏省",
            "city":"无锡市",
            "area":"惠山区",
            "telephone":"(0510)83261482",
            "detail":1,
            "uid":"d991e1165afe3d551f38943a"
        },
        {
            "name":"中国农业银行(无锡新都会支行)",
            "location":{
                "lat":31.55718,
                "lng":120.378081
            },
            "address":"无锡市新吴区旺庄东路199-2号",
            "province":"江苏省",
            "city":"无锡市",
            "area":"新吴区",
            "street_id":"55fa2c0b3188292d1ce99957",
            "detail":1,
            "uid":"55fa2c0b3188292d1ce99957"
        },
        {
            "name":"中国农业银行(城西支行)",
            "location":{
                "lat":31.90795,
                "lng":120.263299
            },
            "address":"江苏省无锡市江阴市人民西路20号",
            "province":"江苏省",
            "city":"无锡市",
            "area":"江阴市",
            "street_id":"1020060fccdc5fa61894c611",
            "telephone":"(0510)86883360",
            "detail":1,
            "uid":"1020060fccdc5fa61894c611"
        },
        {
            "name":"中国农业银行(文林支行)",
            "location":{
                "lat":31.723398,
                "lng":120.411188
            },
            "address":"江苏省无锡市江阴市祝塘镇文林人民路10-8号",
            "province":"江苏省",
            "city":"无锡市",
            "area":"江阴市",
            "telephone":"(0510)86341454,(0510)86341015",
            "detail":1,
            "uid":"729aad31406762f1841541d8"
        },
        {
            "name":"中国农业银行(璜塘支行)",
            "location":{
                "lat":31.762804,
                "lng":120.349447
            },
            "address":"江苏省无锡市江阴市霞客镇璜塘金凤中路8号",
            "province":"江苏省",
            "city":"无锡市",
            "area":"江阴市",
            "telephone":"(0510)86531757",
            "detail":1,
            "uid":"435d7aea4fcb18355abbbc65"
        },
        {
            "name":"中国农业银行(得胜路)",
            "location":{
                "lat":31.497446,
                "lng":119.855364
            },
            "address":"人民中路与人民南路交叉口西南50米",
            "province":"江苏省",
            "city":"无锡市",
            "area":"宜兴市",
            "detail":1,
            "uid":"7b0aa5d76c43d99b6fc02ce6"
        },
        {
            "name":"中国农业银行(茶东支行)",
            "location":{
                "lat":31.369129,
                "lng":119.83152
            },
            "address":"江苏省无锡市宜兴市荆溪中路288",
            "province":"江苏省",
            "city":"无锡市",
            "area":"宜兴市",
            "street_id":"2bd857c3a3d202cab4265576",
            "telephone":"(0510)87916420",
            "detail":1,
            "uid":"2bd857c3a3d202cab4265576"
        },
        {
            "name":"中国农业银行(文定支行)",
            "location":{
                "lat":31.912663,
                "lng":120.292318
            },
            "address":"澄江街道延陵路216-220号文定商城",
            "province":"江苏省",
            "city":"无锡市",
            "area":"江阴市",
            "street_id":"a90c66f015be218e28d7abcd",
            "telephone":"(0510)86871895",
            "detail":1,
            "uid":"a90c66f015be218e28d7abcd"
        },
        {
            "name":"中国农业银行(长泾支行)",
            "location":{
                "lat":31.752929,
                "lng":120.490822
            },
            "address":"江苏省无锡市江阴市长泾镇人民路127号",
            "province":"江苏省",
            "city":"无锡市",
            "area":"江阴市",
            "telephone":"(0510)86301585",
            "detail":1,
            "uid":"6113ef774b794b148e77276e"
        },
        {
            "name":"中国农业银行(新庄支行)",
            "location":{
                "lat":31.358179,
                "lng":119.918395
            },
            "address":"震泽路280",
            "province":"江苏省",
            "city":"无锡市",
            "area":"宜兴市",
            "telephone":"(0510)87561532",
            "detail":1,
            "uid":"be1ea5ef738818c214948e15"
        },
        {
            "name":"中国农业银行(茶局支行)",
            "location":{
                "lat":31.370804,
                "lng":119.827548
            },
            "address":"东虹路579号",
            "province":"江苏省",
            "city":"无锡市",
            "area":"宜兴市",
            "street_id":"78bd50f786bc715b31870aea",
            "telephone":"(0510)87904004,(0510)87913122",
            "detail":1,
            "uid":"78bd50f786bc715b31870aea"
        },
        {
            "name":"中国农业银行(张渚支行)",
            "location":{
                "lat":31.272689,
                "lng":119.640531
            },
            "address":"新街街道张渚镇人民北路5号",
            "province":"江苏省",
            "city":"无锡市",
            "area":"宜兴市",
            "telephone":"(0510)87301594",
            "detail":1,
            "uid":"10dbfbe63b36fad171210b1a"
        },
        {
            "name":"中国农业银行(华士支行)",
            "location":{
                "lat":31.838301,
                "lng":120.473063
            },
            "address":"江苏省无锡市江阴市华士镇人民路67号",
            "province":"江苏省",
            "city":"无锡市",
            "area":"江阴市",
            "street_id":"aab2e5ed72f3f6b514b54b44",
            "telephone":"(0510)86201079",
            "detail":1,
            "uid":"aab2e5ed72f3f6b514b54b44"
        },
        {
            "name":"中国农业银行(南闸支行)",
            "location":{
                "lat":31.858978,
                "lng":120.255864
            },
            "address":"江苏省无锡市江阴市南闸镇紫金路7号",
            "province":"江苏省",
            "city":"无锡市",
            "area":"江阴市",
            "telephone":"(0510)86181659",
            "detail":1,
            "uid":"49d9593825f9fe3ec71e5199"
        },
        {
            "name":"中国农业银行(祝塘支行)",
            "location":{
                "lat":31.776559,
                "lng":120.416894
            },
            "address":"镇北路55号",
            "province":"江苏省",
            "city":"无锡市",
            "area":"江阴市",
            "telephone":"(0510)86381206",
            "detail":1,
            "uid":"d52831f9e16436a72efaa761"
        },
        {
            "name":"中国农业银行(峭岐支行)",
            "location":{
                "lat":31.816288,
                "lng":120.314665
            },
            "address":"人民路372号",
            "province":"江苏省",
            "city":"无锡市",
            "area":"江阴市",
            "telephone":"(0510)86561256",
            "detail":1,
            "uid":"b3aa435d7796b30b15764364"
        },
        {
            "name":"中国农业银行(宜兴支行)",
            "location":{
                "lat":31.368639,
                "lng":119.8235
            },
            "address":"宜兴市宜城街道人民中路160号",
            "province":"江苏省",
            "city":"无锡市",
            "area":"宜兴市",
            "street_id":"25ec69fcb3257e7dc26c14ea",
            "telephone":"(0510)87903840",
            "detail":1,
            "uid":"25ec69fcb3257e7dc26c14ea"
        },
        {
            "name":"中国农业银行(杨巷支行)",
            "location":{
                "lat":31.48011,
                "lng":119.599244
            },
            "address":"江苏省无锡市宜兴市杨巷镇中桥路152-154号",
            "province":"江苏省",
            "city":"无锡市",
            "area":"宜兴市",
            "telephone":"(0510)87271316",
            "detail":1,
            "uid":"f81065955846e76874026967"
        }
    ]
}