{
    "status":0,
    "message":"ok",
    "total":277,
    "results":[
        {
            "name":"中国银行(无锡鹅湖支行)",
            "location":{
                "lat":31.530528,
                "lng":120.554317
            },
            "address":"无锡市锡山区鹅湖镇新杨路29号",
            "province":"江苏省",
            "city":"无锡市",
            "area":"锡山区",
            "street_id":"390947b921725e8f246e9864",
            "telephone":"(0510)88525567",
            "detail":1,
            "uid":"390947b921725e8f246e9864"
        },
        {
            "name":"中国银行(无锡广益支行)",
            "location":{
                "lat":31.599761,
                "lng":120.336227
            },
            "address":"无锡市梁溪区广益路305号",
            "province":"江苏省",
            "city":"无锡市",
            "area":"梁溪区",
            "street_id":"764f4f55b8d4458cb8bd634e",
            "telephone":"(0510)82031127",
            "detail":1,
            "uid":"764f4f55b8d4458cb8bd634e"
        },
        {
            "name":"中国银行(无锡南苑支行)",
            "location":{
                "lat":31.570716,
                "lng":120.323668
            },
            "address":"无锡市新吴区永乐东路88号环卫局楼下",
            "province":"江苏省",
            "city":"无锡市",
            "area":"新吴区",
            "street_id":"38e48037379a0149373a7175",
            "telephone":"(0510)85014014",
            "detail":1,
            "uid":"38e48037379a0149373a7175"
        },
        {
            "name":"中国银行(无锡靖海支行)",
            "location":{
                "lat":31.589114,
                "lng":120.333294
            },
            "address":"无锡市梁溪区上马墩路146号",
            "province":"江苏省",
            "city":"无锡市",
            "area":"梁溪区",
            "street_id":"25ec69fcb2be617dc26c1443",
            "detail":1,
            "uid":"25ec69fcb2be617dc26c1443"
        },
        {
            "name":"中国银行(无锡崇安支行)",
            "location":{
                "lat":31.592323,
                "lng":120.330143
            },
            "address":"无锡市梁溪区人民东路401号",
            "province":"江苏省",
            "city":"无锡市",
            "area":"梁溪区",
            "street_id":"9de332fa670d803b4557261a",
            "telephone":"(0510)82447917",
            "detail":1,
            "uid":"9de332fa670d803b4557261a"
        },
        {
            "name":"中国银行(无锡凤宾支行)",
            "location":{
                "lat":31.605181,
                "lng":120.291864
            },
            "address":"无锡市凤宾家园177号",
            "province":"江苏省",
            "city":"无锡市",
            "area":"梁溪区",
            "street_id":"480b24d089b2d98c9cec2b21",
            "telephone":"(0510)83198221",
            "detail":1,
            "uid":"480b24d089b2d98c9cec2b21"
        },
        {
            "name":"中国银行(无锡山北支行)",
            "location":{
                "lat":31.607899,
                "lng":120.268193
            },
            "address":"无锡市梁溪区石门路79附7号至10号",
            "province":"江苏省",
            "city":"无锡市",
            "area":"梁溪区",
            "street_id":"3a0fbba81c9f2f419fe32189",
            "telephone":"(0510)83705744",
            "detail":1,
            "uid":"3a0fbba81c9f2f419fe32189"
        },
        {
            "name":"中国银行(无锡钱桥支行)",
            "location":{
                "lat":31.604651,
                "lng":120.2416
            },
            "address":"无锡市惠钱路284号",
            "province":"江苏省",
            "city":"无锡市",
            "area":"惠山区",
            "street_id":"55fa2c0b316f292d1ce9993a",
            "telephone":"(0510)83201714",
            "detail":1,
            "uid":"55fa2c0b316f292d1ce9993a"
        },
        {
            "name":"中国银行(永丰路支行)",
            "location":{
                "lat":31.564688,
                "lng":120.307236
            },
            "address":"永丰路351号",
            "province":"江苏省",
            "city":"无锡市",
            "area":"梁溪区",
            "street_id":"8a8141ec9680127513293556",
            "telephone":"(0510)85099633",
            "detail":1,
            "uid":"8a8141ec9680127513293556"
        },
        {
            "name":"中国银行(无锡东门支行)",
            "location":{
                "lat":31.584696,
                "lng":120.317107
            },
            "address":"江苏省无锡市梁溪区人民东路15",
            "province":"江苏省",
            "city":"无锡市",
            "area":"梁溪区",
            "street_id":"f1f5cac5c01d859836b06c75",
            "telephone":"(0510)82826013",
            "detail":1,
            "uid":"f1f5cac5c01d859836b06c75"
        },
        {
            "name":"中国银行(无锡泰康支行)",
            "location":{
                "lat":31.564722,
                "lng":120.269154
            },
            "address":"无锡市蠡溪路58号",
            "province":"江苏省",
            "city":"无锡市",
            "area":"滨湖区",
            "street_id":"9fbfeef22665c145ede4a557",
            "telephone":"(0510)85812143",
            "detail":1,
            "uid":"9fbfeef22665c145ede4a557"
        },
        {
            "name":"中国银行(无锡梁溪支行)",
            "location":{
                "lat":31.545929,
                "lng":120.32713
            },
            "address":"江苏省无锡市清扬路256号",
            "province":"江苏省",
            "city":"无锡市",
            "area":"梁溪区",
            "street_id":"d5464cf89a25b857fda77875",
            "telephone":"(0510)85852682",
            "detail":1,
            "uid":"d5464cf89a25b857fda77875"
        },
        {
            "name":"中国银行(无锡扬名支行)",
            "location":{
                "lat":31.552071,
                "lng":120.320737
            },
            "address":"江苏省无锡市清扬路170号",
            "province":"江苏省",
            "city":"无锡市",
            "area":"梁溪区",
            "street_id":"48eb00582463a2ad2fe67b75",
            "telephone":"(0510)85748785",
            "detail":1,
            "uid":"48eb00582463a2ad2fe67b75"
        },
        {
            "name":"中国银行(无锡雪浪支行)",
            "location":{
                "lat":31.474605,
                "lng":120.296517
            },
            "address":"江苏省无锡市滨湖区仙河苑一期4号",
            "province":"江苏省",
            "city":"无锡市",
            "area":"滨湖区",
            "street_id":"de420bc58240777ff7231001",
            "telephone":"(0510)85180731",
            "detail":1,
            "uid":"de420bc58240777ff7231001"
        },
        {
            "name":"中国银行(无锡振胡支行)",
            "location":{
                "lat":31.554283,
                "lng":120.129625
            },
            "address":"无锡市滨湖区胡埭镇振胡路38号",
            "province":"江苏省",
            "city":"无锡市",
            "area":"滨湖区",
            "street_id":"ab1ea7072622a2acb5f42fa9",
            "telephone":"(0510)85597341",
            "detail":1,
            "uid":"ab1ea7072622a2acb5f42fa9"
        },
        {
            "name":"中国银行(无锡东门支行)",
            "location":{
                "lat":31.579892,
                "lng":120.09909
            },
            "address":"无锡市人民东路15号",
            "province":"江苏省",
            "city":"无锡市",
            "area":"惠山区",
            "telephone":"(0510)82826013",
            "detail":1,
            "uid":"b0399e99009946d3471a3286"
        },
        {
            "name":"中国银行(无锡香榭丽支行)",
            "location":{
                "lat":31.586054,
                "lng":120.294827
            },
            "address":"无锡市县前西街183至193号",
            "province":"江苏省",
            "city":"无锡市",
            "area":"梁溪区",
            "street_id":"37d60a46831bfa601f1d118c",
            "telephone":"(0510)82803154",
            "detail":1,
            "uid":"37d60a46831bfa601f1d118c"
        },
        {
            "name":"中国银行(无锡万顺道支行)",
            "location":{
                "lat":31.502789,
                "lng":120.291157
            },
            "address":"江苏省无锡市滨湖区万顺道56号附近",
            "province":"江苏省",
            "city":"无锡市",
            "area":"滨湖区",
            "detail":1,
            "uid":"289265b26a980e1a2bb97c6b"
        },
        {
            "name":"中国银行(无锡东北塘支行)",
            "location":{
                "lat":31.635393,
                "lng":120.360621
            },
            "address":"无锡市锡山区东北塘镇东方名苑29至30号",
            "province":"江苏省",
            "city":"无锡市",
            "area":"锡山区",
            "street_id":"7c5e480bf96adcc9adb22a21",
            "telephone":"(0510)83774271",
            "detail":1,
            "uid":"7c5e480bf96adcc9adb22a21"
        },
        {
            "name":"中国银行(无锡建筑路支行)",
            "location":{
                "lat":31.555806,
                "lng":120.294472
            },
            "address":"无锡市建筑路156号",
            "province":"江苏省",
            "city":"无锡市",
            "area":"梁溪区",
            "street_id":"08f1f1f5f7ae0cca88db7375",
            "telephone":"(0510)82724963",
            "detail":1,
            "uid":"08f1f1f5f7ae0cca88db7375"
        }
    ]
}