{
    "status":0,
    "message":"ok",
    "total":288,
    "results":[
        {
            "name":"中国农业银行(无锡东绛支行)",
            "location":{
                "lat":31.512066,
                "lng":120.298893
            },
            "address":"江苏省无锡市周新西路51至65号",
            "province":"江苏省",
            "city":"无锡市",
            "area":"滨湖区",
            "street_id":"fbb640c96555817d9322e0a3",
            "telephone":"(0510)85064069",
            "detail":1,
            "uid":"fbb640c96555817d9322e0a3"
        },
        {
            "name":"中国农业银行(张舍分理处)",
            "location":{
                "lat":31.568441,
                "lng":120.147284
            },
            "address":"滨湖区张舍中路",
            "province":"江苏省",
            "city":"无锡市",
            "area":"滨湖区",
            "detail":1,
            "uid":"0a72e4a80e3c3f87c27da2d0"
        },
        {
            "name":"中国农业银行(胡埭园区支行)",
            "location":{
                "lat":31.552706,
                "lng":120.1296
            },
            "address":"江苏省无锡市滨湖区振胡路110-115号",
            "province":"江苏省",
            "city":"无锡市",
            "area":"滨湖区",
            "street_id":"2737aad5c419fa1c1df74d41",
            "telephone":"(0510)85597042,(0510)85597041",
            "detail":1,
            "uid":"2737aad5c419fa1c1df74d41"
        },
        {
            "name":"中国农业银行(无锡八士支行)",
            "location":{
                "lat":31.655608,
                "lng":120.3952
            },
            "address":"江苏省无锡市锡山区锡北镇八士通富街2号",
            "province":"江苏省",
            "city":"无锡市",
            "area":"锡山区",
            "street_id":"c7fb04bd0f8bcd15fb0cadb8",
            "telephone":"(0510)83782837",
            "detail":1,
            "uid":"c7fb04bd0f8bcd15fb0cadb8"
        },
        {
            "name":"中国农业银行(无锡玉祁支行)",
            "location":{
                "lat":31.717751,
                "lng":120.192218
            },
            "address":"无锡市惠山区玉祁镇镇中路6号",
            "province":"江苏省",
            "city":"无锡市",
            "area":"惠山区",
            "telephone":"(0510)83887439,(0510)83887084",
            "detail":1,
            "uid":"be1ea5efb2ba47bf14948e2f"
        }
    ]
}