{
    "status":0,
    "message":"ok",
    "total":283,
    "results":[
        {
            "name":"中国银行",
            "location":{
                "lat":31.557112,
                "lng":120.362903
            },
            "address":"江苏省无锡市新吴区汉江北路新光路路口汉江北路100米",
            "province":"江苏省",
            "city":"无锡市",
            "area":"新吴区",
            "detail":1,
            "uid":"875d01578bf7c2ca932ca350"
        },
        {
            "name":"中国银行(梅村支行)",
            "location":{
                "lat":31.554144,
                "lng":120.442945
            },
            "address":"梅村街道锡梅花园15-38-40号",
            "province":"江苏省",
            "city":"无锡市",
            "area":"新吴区",
            "street_id":"7152f78a0a062da32fb96dfe",
            "telephone":"(0510)88150099",
            "detail":1,
            "uid":"7152f78a0a062da32fb96dfe"
        },
        {
            "name":"中国银行",
            "location":{
                "lat":31.906971,
                "lng":120.192101
            },
            "address":"江苏省无锡市江阴市香江路江阴临港新城口岸单位办公楼",
            "province":"江苏省",
            "city":"无锡市",
            "area":"江阴市",
            "detail":1,
            "uid":"e549c45daa90fe7d4151c0a6"
        },
        {
            "name":"中国银行",
            "location":{
                "lat":31.482646,
                "lng":119.940925
            },
            "address":"江苏省无锡市宜兴市中国农业银行(342省道南)",
            "province":"江苏省",
            "city":"无锡市",
            "area":"宜兴市",
            "detail":1,
            "uid":"74943161247c5724eaf8532d"
        },
        {
            "name":"中国银行(灵山支行)",
            "location":{
                "lat":31.465991,
                "lng":120.124548
            },
            "address":"梅梁路28号",
            "province":"江苏省",
            "city":"无锡市",
            "area":"滨湖区",
            "telephone":"(0510)85996466",
            "detail":1,
            "uid":"4af948fa23deab144107c130"
        },
        {
            "name":"中国银行(惠山支行)",
            "location":{
                "lat":31.681814,
                "lng":120.30326
            },
            "address":"惠山区政和大道186号",
            "province":"江苏省",
            "city":"无锡市",
            "area":"惠山区",
            "street_id":"881a28e7fe4b3747f942b22a",
            "telephone":"(0510)83590191,(0510)83590193",
            "detail":1,
            "uid":"881a28e7fe4b3747f942b22a"
        },
        {
            "name":"中国银行(胡埭支行)",
            "location":{
                "lat":31.552917,
                "lng":120.138791
            },
            "address":"无锡市滨湖区富安商业广场A区9-7号",
            "province":"江苏省",
            "city":"无锡市",
            "area":"滨湖区",
            "telephone":"(0510)85599994",
            "detail":1,
            "uid":"90b66bd0553fd2da42d63e71"
        },
        {
            "name":"中国银行(无锡堰桥支行)",
            "location":{
                "lat":31.694118,
                "lng":120.292268
            },
            "address":"无锡市惠山区堰桥街道中街28号",
            "province":"江苏省",
            "city":"无锡市",
            "area":"惠山区",
            "street_id":"28e700f13a41f401095cb32a",
            "telephone":"(0510)83740288",
            "detail":1,
            "uid":"28e700f13a41f401095cb32a"
        },
        {
            "name":"中国银行(无锡前洲支行)",
            "location":{
                "lat":31.697603,
                "lng":120.220722
            },
            "address":"前洲街道青城东路6号",
            "province":"江苏省",
            "city":"无锡市",
            "area":"惠山区",
            "telephone":"(0510)83391748",
            "detail":1,
            "uid":"2527be1e7e5a98b34afc8d2f"
        },
        {
            "name":"中国银行(无锡查桥支行)",
            "location":{
                "lat":31.603175,
                "lng":120.433199
            },
            "address":"无锡市锡山区安镇街道查桥南路8至13号",
            "province":"江苏省",
            "city":"无锡市",
            "area":"锡山区",
            "street_id":"09c5f43f5115f67ba8f729ac",
            "telephone":"(0510)88710805",
            "detail":1,
            "uid":"09c5f43f5115f67ba8f729ac"
        },
        {
            "name":"中国银行(无锡坊前支行)",
            "location":{
                "lat":31.566953,
                "lng":120.390713
            },
            "address":"江苏省无锡市江溪街道坊前路65号",
            "province":"江苏省",
            "city":"无锡市",
            "area":"新吴区",
            "street_id":"25ec69fcb28b617dc26c144c",
            "telephone":"(0510)88270775",
            "detail":1,
            "uid":"25ec69fcb28b617dc26c144c"
        },
        {
            "name":"中国银行(无锡旺庄支行)",
            "location":{
                "lat":31.554788,
                "lng":120.374583
            },
            "address":"江苏省无锡市新区旺庄东路10号",
            "province":"江苏省",
            "city":"无锡市",
            "area":"新吴区",
            "street_id":"e841e3e00d3e7a8addee8b1d",
            "telephone":"(0510)85297285",
            "detail":1,
            "uid":"e841e3e00d3e7a8addee8b1d"
        },
        {
            "name":"中国银行(无锡蠡湖支行)",
            "location":{
                "lat":31.555287,
                "lng":120.269175
            },
            "address":"江苏省无锡市滨湖区建筑路1198号",
            "province":"江苏省",
            "city":"无锡市",
            "area":"滨湖区",
            "street_id":"101bc61b3c482ba3c42ba157",
            "telephone":"(0510)85166247",
            "detail":1,
            "uid":"101bc61b3c482ba3c42ba157"
        },
        {
            "name":"中国银行(无锡河埒支行)",
            "location":{
                "lat":31.565799,
                "lng":120.253308
            },
            "address":"江苏省无锡市梁溪路桃源人家3号",
            "province":"江苏省",
            "city":"无锡市",
            "area":"滨湖区",
            "street_id":"a7c56ee04b782fcda3acc447",
            "telephone":"(0510)85705701",
            "detail":1,
            "uid":"a7c56ee04b782fcda3acc447"
        },
        {
            "name":"中国银行(无锡新联支行)",
            "location":{
                "lat":31.534216,
                "lng":120.308565
            },
            "address":"江苏省无锡市金城路827号",
            "province":"江苏省",
            "city":"无锡市",
            "area":"梁溪区",
            "street_id":"6c2473204dca7dd314b54b2d",
            "telephone":"(0510)85406404",
            "detail":1,
            "uid":"6c2473204dca7dd314b54b2d"
        },
        {
            "name":"中国银行(无锡太湖支行)",
            "location":{
                "lat":31.514381,
                "lng":120.307557
            },
            "address":"无锡市滨湖区太湖街道周新中路90号",
            "province":"江苏省",
            "city":"无锡市",
            "area":"滨湖区",
            "street_id":"cac5fc764e4f3bf32cb96d75",
            "telephone":"(0510)85062776",
            "detail":1,
            "uid":"cac5fc764e4f3bf32cb96d75"
        },
        {
            "name":"中国银行(无锡南泉支行)",
            "location":{
                "lat":31.440982,
                "lng":120.271481
            },
            "address":"无锡市滨湖区雪浪街道方泉路17号",
            "province":"江苏省",
            "city":"无锡市",
            "area":"滨湖区",
            "street_id":"251374c984c60a3fa01de9a7",
            "telephone":"(0510)85953240",
            "detail":1,
            "uid":"251374c984c60a3fa01de9a7"
        },
        {
            "name":"中国银行(无锡阳山支行)",
            "location":{
                "lat":31.579939,
                "lng":120.102195
            },
            "address":"无锡市阳山镇人民东路79号",
            "province":"江苏省",
            "city":"无锡市",
            "area":"惠山区",
            "telephone":"(0510)83958558",
            "detail":1,
            "uid":"4726a03b9beafefd901fc955"
        },
        {
            "name":"中国银行(无锡长安支行)",
            "location":{
                "lat":31.679551,
                "lng":120.360923
            },
            "address":"江苏省无锡市惠山区迎新路256号",
            "province":"江苏省",
            "city":"无锡市",
            "area":"惠山区",
            "telephone":"(0510)83762420",
            "detail":1,
            "uid":"2a58bb4e9a616425c51e5130"
        },
        {
            "name":"中国银行(无锡安镇支行)",
            "location":{
                "lat":31.616998,
                "lng":120.478492
            },
            "address":"无锡市锡山区安镇镇中学路1号",
            "province":"江苏省",
            "city":"无锡市",
            "area":"锡山区",
            "street_id":"881a28e7fed93747f842b2b8",
            "telephone":"(0510)88533022",
            "detail":1,
            "uid":"881a28e7fed93747f842b2b8"
        }
    ]
}